         ,BHK,Rent,Size,Floor,Area Type,Area Locality,City,Furnishing Status,Tenant Preferred,Bathroom,Point of Contact,Unnamed: 14,Bathroom_Type,Latitude,Longitude,Neighborhood_Livability_Score,Cluster_ID
Posted On,2,10000,1100,Ground out of 2,Super Area,Bandel,Kolkata,Unfurnished,Bachelors/Family,2,Contact Owner,,En-suite,22.54380462,88.27096912,4.2,2
Posted On,2,20000,800,1 out of 3,Super Area,"Phool Bagan, Kankurgachi",Kolkata,Semi-Furnished,Bachelors/Family,1,Contact Owner,,Attached,22.60162232,88.45699783,1.6,2
Posted On,2,17000,1000,1 out of 3,Super Area,Salt Lake City Sector 2,Kolkata,Semi-Furnished,Bachelors/Family,1,Contact Owner,,En-suite,22.55225166,88.39420206,9.6,2
Posted On,2,10000,800,1 out of 2,Super Area,Dumdum Park,Kolkata,Unfurnished,Bachelors/Family,1,Contact Owner,        ,Attached,22.51691891,88.28318683,4.5,2
Posted On,2,7500,850,1 out of 2,Carpet Area,South Dum Dum,Kolkata,Unfurnished,Bachelors,1,Contact Owner,,Common,22.49226572,88.453267,6.6,2
Posted On,2,7000,600,Ground out of 1,Super Area,Thakurpukur,Kolkata,Unfurnished,Bachelors/Family,2,Contact Owner,,Attached,22.57541846,88.32563967,4.2,2
Posted On,2,10000,700,Ground out of 4,Super Area,Malancha,Kolkata,Unfurnished,Bachelors,2,Contact Agent,,En-suite,22.57597459,88.42228858,8.0,2
Posted On,1,5000,250,1 out of 2,Super Area,Malancha,Kolkata,Unfurnished,Bachelors,1,Contact Agent,,Standard,22.58035299,88.37168122,9.3,2
Posted On,2,26000,800,1 out of 2,Carpet Area,"Palm Avenue Kolkata, Ballygunge",Kolkata,Unfurnished,Bachelors,2,Contact Agent,,Attached,22.61638648,88.41099277,3.6,2
Posted On,2,10000,1000,1 out of 3,Carpet Area,Natunhat,Kolkata,Semi-Furnished,Bachelors/Family,2,Contact Owner,,En-suite,22.49965877,88.32606222,5.5,2
Posted On,3,25000,1200,1 out of 4,Carpet Area,"Action Area 1, Rajarhat Newtown",Kolkata,Semi-Furnished,Bachelors/Family,2,Contact Agent,,Attached,22.55327365,88.3751325,7.3,2
Posted On,1,5000,400,1 out of 1,Carpet Area,Keshtopur,Kolkata,Unfurnished,Bachelors/Family,1,Contact Agent,,Common,22.48339102,88.30875407,4.2,2
Posted On,1,6500,250,1 out of 4,Carpet Area,"Tarulia, Keshtopur",Kolkata,Furnished,Bachelors,1,Contact Owner,,Attached,22.65629695,88.2929782,8.9,2
Posted On,1,5500,375,1 out of 2,Carpet Area,Dum Dum Metro,Kolkata,Unfurnished,Bachelors/Family,1,Contact Agent,,Standard,22.62753039,88.33789324,8.3,2
Posted On,3,8500,900,Ground out of 2,Carpet Area,Paschim Barisha,Kolkata,Unfurnished,Bachelors,2,Contact Owner,,Attached,22.64809363,88.32343574,5.1,2
Posted On,3,40000,1286,1 out of 1,Carpet Area,New Town Action Area 1,Kolkata,Furnished,Bachelors/Family,2,Contact Owner,,Standard,22.63156081,88.41976709,4.5,2
Posted On,2,6000,600,1 out of 2,Super Area,Barasat,Kolkata,Semi-Furnished,Bachelors/Family,1,Contact Owner,,Attached,22.47643132,88.29999993,6.8,2
Posted On,2,10000,800,Ground out of 2,Super Area,Behala,Kolkata,Unfurnished,Bachelors/Family,1,Contact Owner,,Attached,22.53921775,88.441305,3.3,2
Posted On,2,11000,2000,Ground out of 3,Carpet Area,Behala Chowrasta,Kolkata,Unfurnished,Bachelors/Family,1,Contact Owner,,Attached,22.57606989,88.29919091,5.3,2
Posted On,2,6000,660,1 out of 2,Super Area,Behala,Kolkata,Unfurnished,Bachelors/Family,1,Contact Owner,,Standard,22.57864019,88.44052648,1.7,2
Posted On,2,7900,650,1 out of 2,Carpet Area,Santoshpur,Kolkata,Unfurnished,Family,1,Contact Owner,,Attached,22.49641999,88.36586941,5.7,2
Posted On,2,9000,400,2 out of 3,Carpet Area,"Garia Station, Garia",Kolkata,Unfurnished,Bachelors,2,Contact Owner,,Standard,22.65951216,88.33861517,9.9,2
Posted On,1,4000,300,Ground out of 4,Carpet Area,"Garia Station, Garia",Kolkata,Unfurnished,Bachelors/Family,1,Contact Owner,,Attached,22.54917242,88.38339047,9.7,2
Posted On,3,6500,1600,Ground out of 2,Super Area,Joka,Kolkata,Unfurnished,Bachelors/Family,1,Contact Owner,,Attached,22.6606592,88.41753307,1.9,2
Posted On,1,8000,400,1 out of 2,Super Area,Sreebhumi,Kolkata,Semi-Furnished,Bachelors,1,Contact Agent,,Standard,22.63357452,88.3972624,7.4,2
Posted On,2,7000,1000,1 out of 1,Super Area,Rajarhat,Kolkata,Unfurnished,Bachelors/Family,1,Contact Owner,,Attached,22.6261907,88.33596827,8.7,2
Posted On,1,5300,355,1 out of 1,Carpet Area,Dum Dum,Kolkata,Semi-Furnished,Bachelors/Family,1,Contact Agent,,Attached,22.61725577,88.3510645,5.1,2
Posted On,2,6000,1000,Ground out of 3,Super Area,"Kodalia, Hooghly-Chinsurah",Kolkata,Semi-Furnished,Bachelors/Family,1,Contact Owner,,Standard,22.56792175,88.29380957,7.2,2
Posted On,2,8500,800,4 out of 5,Super Area,Baguiati,Kolkata,Unfurnished,Bachelors/Family,1,Contact Owner,,Attached,22.4732977,88.41759629,9.8,2
Posted On,2,12500,850,Ground out of 2,Super Area,"Rabindra Sarobar Area, Dhakuria",Kolkata,Unfurnished,Bachelors/Family,2,Contact Owner,,Attached,22.64064706,88.29777913,7.0,2
Posted On,1,7500,350,Ground out of 2,Carpet Area,Baghajatin,Kolkata,Unfurnished,Bachelors/Family,1,Contact Owner,,Attached,22.6018221,88.31336545,3.0,2
Posted On,2,15000,900,Ground out of 2,Carpet Area,"Project Kaikhali, Vip Road",Kolkata,Unfurnished,Bachelors/Family,2,Contact Owner,,Standard,22.54598471,88.39123182,6.6,2
Posted On,2,6000,550,1 out of 1,Super Area,Vip Road,Kolkata,Semi-Furnished,Bachelors/Family,1,Contact Owner,,Common,22.61816636,88.42003651,5.5,2
Posted On,2,5000,500,Ground out of 2,Carpet Area,Baruipur,Kolkata,Unfurnished,Bachelors/Family,2,Contact Owner,,Standard,22.63353156,88.38611288,2.9,2
Posted On,3,22000,1100,2 out of 3,Carpet Area,Dumdum Park,Kolkata,Unfurnished,Bachelors/Family,1,Contact Owner,,Common,22.57427897,88.35347478,7.0,2
Posted On,2,15000,850,1 out of 2,Carpet Area,Sreebhumi,Kolkata,Semi-Furnished,Bachelors/Family,1,Contact Owner,,Attached,22.56069755,88.33747548,9.4,2
Posted On,2,12500,800,2 out of 2,Carpet Area,Shyam Bazar,Kolkata,Unfurnished,Bachelors,1,Contact Agent,,Attached,22.61306366,88.32337916,4.4,2
Posted On,2,7000,630,Ground out of 3,Carpet Area,Birati,Kolkata,Unfurnished,Bachelors,1,Contact Owner,,Attached,22.49973048,88.3936103,8.1,2
Posted On,2,21000,900,1 out of 2,Carpet Area,Bansdroni,Kolkata,Semi-Furnished,Bachelors,2,Contact Owner,,Attached,22.56811819,88.40042384,4.4,2
Posted On,1,10000,270,1 out of 2,Carpet Area,Jadavpur University,Kolkata,Semi-Furnished,Bachelors/Family,1,Contact Owner,,Common,22.53543981,88.36401637,8.8,2
Posted On,2,7200,630,Ground out of 1,Carpet Area,Birati,Kolkata,Semi-Furnished,Bachelors/Family,1,Contact Owner,,Attached,22.55777536,88.26423533,2.3,2
Posted On,3,12000,1500,Ground out of 2,Carpet Area,Bhadrakali,Kolkata,Furnished,Bachelors,2,Contact Owner,,Attached,22.61961626,88.32726509,9.7,2
Posted On,1,5000,600,2 out of 5,Super Area,Behala,Kolkata,Unfurnished,Bachelors/Family,1,Contact Owner,,Attached,22.53175842,88.42928182,7.9,2
Posted On,2,8500,700,4 out of 14,Carpet Area,Baruipur,Kolkata,Semi-Furnished,Bachelors/Family,1,Contact Owner,,Standard,22.47297203,88.45007671,5.9,2
Posted On,1,6000,300,Ground out of 3,Super Area,Ballygunge,Kolkata,Semi-Furnished,Bachelors/Family,1,Contact Owner,,En-suite,22.62215905,88.27915523,5.7,2
Posted On,2,10000,1300,Ground out of 1,Super Area,Kalikapur,Kolkata,Semi-Furnished,Family,2,Contact Owner,,Common,22.63267627,88.45275325,7.8,2
Posted On,2,4600,400,3 out of 3,Carpet Area,Behala,Kolkata,Semi-Furnished,Bachelors,1,Contact Owner,,Attached,22.59252158,88.44416239,3.5,2
Posted On,2,12000,650,Ground out of 1,Super Area,"Baishnabghata Patuli Township, Patuli",Kolkata,Unfurnished,Family,2,Contact Owner,,Attached,22.62590718,88.37657008,5.5,2
Posted On,3,30000,2000,Ground out of 2,Super Area,Behala,Kolkata,Semi-Furnished,Bachelors/Family,2,Contact Owner,,Standard,22.66411807,88.3321368,7.9,2
Posted On,3,15000,1068,Ground out of 3,Super Area,Bansdroni,Kolkata,Semi-Furnished,Bachelors/Family,2,Contact Owner,,Attached,22.65659584,88.28883353,9.2,2
Posted On,1,7500,150,1 out of 1,Super Area,Salt Lake City,Kolkata,Furnished,Bachelors/Family,1,Contact Owner,,Attached,22.6637628,88.4067047,4.4,2
Posted On,1,7500,450,2 out of 2,Carpet Area,New Town,Kolkata,Unfurnished,Bachelors,1,Contact Owner,,Standard,22.50106199,88.424495,1.8,2
Posted On,2,5000,800,Ground out of 1,Carpet Area,Baruipur,Kolkata,Unfurnished,Bachelors/Family,1,Contact Owner,,Attached,22.64698542,88.29307808,4.2,2
Posted On,2,15000,1000,Ground out of 2,Super Area,Bansdroni,Kolkata,Unfurnished,Bachelors/Family,2,Contact Owner,,Attached,22.64811171,88.4456517,6.5,2
Posted On,2,11000,900,5 out of 5,Super Area,Pancha Sayar,Kolkata,Semi-Furnished,Bachelors,1,Contact Owner,,Standard,22.53600052,88.46164354,4.6,2
Posted On,1,7000,600,Ground out of 2,Carpet Area,Behala,Kolkata,Unfurnished,Bachelors/Family,1,Contact Owner,,Common,22.55758477,88.35737381,6.7,2
Posted On,2,6000,1200,1 out of 1,Super Area,Hooghly-Chinsurah,Kolkata,Unfurnished,Bachelors/Family,1,Contact Owner,,Attached,22.48643578,88.30220463,4.1,2
Posted On,2,6000,1200,2 out of 2,Super Area,Hooghly-Chinsurah,Kolkata,Semi-Furnished,Bachelors,2,Contact Owner,,Attached,22.55890247,88.41548188,3.1,2
Posted On,2,7000,650,Ground out of 3,Super Area,"Amtala, Diamond Harbour Road",Kolkata,Semi-Furnished,Bachelors/Family,2,Contact Owner,,Attached,22.59730474,88.28247142,5.2,2
Posted On,2,8500,720,4 out of 4,Carpet Area,"Shrachi Village, Madhyam Gram",Kolkata,Semi-Furnished,Bachelors/Family,2,Contact Owner,,Attached,22.64138837,88.41255848,3.3,2
Posted On,1,5000,300,1 out of 3,Carpet Area,Kasba,Kolkata,Unfurnished,Bachelors,1,Contact Owner,,En-suite,22.65532677,88.28912006,8.5,2
Posted On,3,30000,1200,Ground out of 2,Carpet Area,VIP Road Haldiram,Kolkata,Unfurnished,Bachelors/Family,3,Contact Agent,,Attached,22.51365084,88.44799379,2.7,2
Posted On,2,10000,700,7 out of 8,Carpet Area,Sarsuna,Kolkata,Unfurnished,Bachelors/Family,2,Contact Owner,,En-suite,22.64543891,88.38452772,8.0,2
Posted On,3,30000,2000,1 out of 3,Super Area,Naihati,Kolkata,Semi-Furnished,Bachelors/Family,2,Contact Owner,,Attached,22.64124407,88.35639766,3.1,2
Posted On,1,3500,250,Ground out of 4,Super Area,Baksara,Kolkata,Semi-Furnished,Bachelors/Family,1,Contact Owner,,Attached,22.58086451,88.27841339,2.8,2
Posted On,2,8000,1100,Ground out of 3,Carpet Area,Naihati,Kolkata,Unfurnished,Bachelors,1,Contact Owner,,Standard,22.63404069,88.32637336,9.7,2
Posted On,1,5000,300,Ground out of 2,Carpet Area,Kasba,Kolkata,Unfurnished,Bachelors/Family,1,Contact Owner,,Attached,22.63540617,88.40986296,6.6,2
Posted On,2,7500,600,Ground out of 2,Super Area,"Amtala, Diamond Harbour Road",Kolkata,Semi-Furnished,Bachelors/Family,1,Contact Owner,,Common,22.64145069,88.27892873,8.7,2
Posted On,2,6500,800,Ground out of 2,Carpet Area,"Chak Thakurani, Thakurpukur",Kolkata,Unfurnished,Bachelors/Family,1,Contact Owner,,Standard,22.50801064,88.43969827,7.7,2
Posted On,1,7500,680,1 out of 3,Super Area,Jadavpur,Kolkata,Unfurnished,Bachelors/Family,1,Contact Owner,,Attached,22.66741435,88.45769951,5.0,2
Posted On,1,7500,680,Ground out of 2,Super Area,Jadavpur,Kolkata,Unfurnished,Bachelors/Family,1,Contact Owner,,Attached,22.5003049,88.31854065,7.2,2
Posted On,2,16000,850,1 out of 4,Carpet Area,Salt Lake City Sector 1,Kolkata,Semi-Furnished,Bachelors,1,Contact Agent,,Attached,22.5392029,88.33188915,9.6,2
Posted On,2,16000,850,1 out of 2,Carpet Area,Salt Lake City Sector 1,Kolkata,Semi-Furnished,Bachelors,1,Contact Agent,,Attached,22.48233303,88.35490744,3.1,2
Posted On,2,6500,700,Ground out of 2,Super Area,Bandel,Kolkata,Unfurnished,Bachelors,1,Contact Owner,,Attached,22.54537101,88.33887263,1.2,2
Posted On,3,40000,1500,Ground out of 2,Super Area,Beliaghata,Kolkata,Unfurnished,Bachelors/Family,2,Contact Owner,,Standard,22.5176133,88.38888395,2.1,2
Posted On,2,12500,950,1 out of 4,Super Area,"Magnolia Prestige, Rajarhat",Kolkata,Semi-Furnished,Bachelors/Family,2,Contact Owner,,Attached,22.64294298,88.40499636,5.0,2
Posted On,2,5500,500,Ground out of 2,Super Area,"Baishnabghata Patuli Township, Patuli",Kolkata,Unfurnished,Bachelors/Family,1,Contact Owner,,En-suite,22.53054037,88.44326222,4.5,2
Posted On,1,5000,450,2 out of 4,Carpet Area,"Dum Dum Heights, Jessore Road",Kolkata,Semi-Furnished,Bachelors/Family,1,Contact Owner,,Standard,22.58258217,88.33297009,1.4,2
Posted On,2,6500,700,Ground out of 2,Super Area,Sonarpur,Kolkata,Unfurnished,Bachelors,1,Contact Owner,,Common,22.47688498,88.45719404,8.3,2
Posted On,1,8000,500,1 out of 2,Super Area,Lake Town,Kolkata,Unfurnished,Bachelors/Family,1,Contact Owner,,Attached,22.66941571,88.35852872,7.2,2
Posted On,3,14500,1800,Ground out of 2,Super Area,Belghoria,Kolkata,Semi-Furnished,Bachelors/Family,2,Contact Owner,,Attached,22.67063633,88.31705423,10.0,2
Posted On,1,8200,500,1 out of 3,Carpet Area,"Rabindra Pally, Keshtopur",Kolkata,Semi-Furnished,Bachelors/Family,1,Contact Owner,,Standard,22.5130202,88.28102665,9.5,2
Posted On,2,15000,480,Ground out of 3,Carpet Area,shukhobrishti,Kolkata,Furnished,Bachelors/Family,2,Contact Owner,,Attached,22.48229565,88.26514126,8.3,2
Posted On,6,20000,1000,1 out of 1,Super Area,Sonarpur,Kolkata,Semi-Furnished,Bachelors/Family,2,Contact Owner,,Common,22.6270733,88.3181053,1.1,2
Posted On,2,6700,800,1 out of 2,Super Area,"Baishnavghata patuli , house number s-300 Kolkata 700094",Kolkata,Furnished,Bachelors/Family,1,Contact Owner,,Standard,22.66618586,88.27844515,7.9,2
Posted On,1,10000,435,2 out of 3,Super Area,Kasba,Kolkata,Unfurnished,Bachelors/Family,1,Contact Owner,,Attached,22.66076863,88.33197357,4.4,2
Posted On,2,7000,700,Ground out of 2,Carpet Area,Dum Dum Metro,Kolkata,Semi-Furnished,Bachelors/Family,2,Contact Agent,,Common,22.51408425,88.40833052,6.3,2
Posted On,2,22000,800,4 out of 4,Super Area,"Hazra, Kalighat",Kolkata,Furnished,Bachelors/Family,1,Contact Agent,,Attached,22.49698808,88.32269134,2.4,2
Posted On,2,6500,450,1 out of 3,Super Area,Ajoy Nagar,Kolkata,Unfurnished,Bachelors/Family,1,Contact Owner,,Attached,22.61498321,88.34459237,4.7,2
Posted On,2,8500,550,2 out of 3,Carpet Area,Kasba -East,Kolkata,Semi-Furnished,Bachelors/Family,1,Contact Agent,,Attached,22.63057325,88.44459222,7.8,2
Posted On,2,18000,800,Ground out of 4,Carpet Area,Salt Lake City,Kolkata,Unfurnished,Bachelors,2,Contact Agent,,Attached,22.48012943,88.42716173,9.0,2
Posted On,2,12000,550,Ground out of 2,Carpet Area,Baghajatin,Kolkata,Semi-Furnished,Family,2,Contact Owner,,Attached,22.55239704,88.39757612,8.1,2
Posted On,1,9000,600,2 out of 4,Super Area,Behala,Kolkata,Furnished,Bachelors/Family,1,Contact Owner,,En-suite,22.55342212,88.44154237,1.2,2
Posted On,1,6000,500,Ground out of 1,Super Area,"New Garia, Garia",Kolkata,Unfurnished,Bachelors/Family,1,Contact Owner,,Common,22.51782801,88.29427243,7.7,2
Posted On,2,20000,1000,1 out of 2,Super Area,Anandapur,Kolkata,Furnished,Bachelors/Family,2,Contact Owner,,Standard,22.48969228,88.46208666,6.7,2
Posted On,1,5000,300,1 out of 2,Carpet Area,Dum Dum Metro,Kolkata,Unfurnished,Bachelors/Family,1,Contact Owner,,Attached,22.67047935,88.42979407,8.8,2
Posted On,2,12000,1200,1 out of 3,Super Area,Boral,Kolkata,Furnished,Bachelors/Family,2,Contact Owner,,Attached,22.65153964,88.37735778,2.4,2
Posted On,2,10000,500,3 out of 4,Carpet Area,"Rabindra Pally, Keshtopur",Kolkata,Semi-Furnished,Bachelors/Family,1,Contact Owner,,En-suite,22.66835018,88.28256893,9.3,2
Posted On,4,18000,1200,1 out of 2,Super Area,Bagbazar,Kolkata,Unfurnished,Family,2,Contact Owner,,Common,22.61357222,88.42026293,7.1,2
Posted On,2,15000,900,1 out of 2,Carpet Area,Salt Lake City Sector 1,Kolkata,Semi-Furnished,Bachelors/Family,2,Contact Agent,,Common,22.63977389,88.43832289,1.3,2
Posted On,3,22000,1300,Ground out of 2,Carpet Area,Salt Lake City Sector 2,Kolkata,Unfurnished,Bachelors/Family,3,Contact Agent,,Attached,22.52994264,88.44430138,3.7,2
Posted On,4,35000,1600,1 out of 5,Carpet Area,Salt Lake City Sector 3,Kolkata,Unfurnished,Bachelors/Family,3,Contact Agent,,Attached,22.58071146,88.30562533,2.0,2
Posted On,3,21000,1450,Ground out of 1,Super Area,Ajoy Nagar,Kolkata,Unfurnished,Family,2,Contact Owner,,En-suite,22.53931764,88.37114546,5.1,2
Posted On,2,25000,1100,2 out of 2,Super Area,"Action Area 1, Rajarhat Newtown",Kolkata,Furnished,Bachelors,2,Contact Agent,,Attached,22.59992268,88.46047439,6.3,2
Posted On,2,180000,950,Ground out of 1,Carpet Area,"Avenue S, Santoshpur",Kolkata,Unfurnished,Bachelors/Family,2,Contact Owner,,Common,22.56058532,88.3332709,2.4,2
Posted On,1,6000,600,8 out of 5,Carpet Area,Pratiraksha Nagar,Kolkata,Unfurnished,Bachelors/Family,1,Contact Owner,,En-suite,22.61308926,88.29098923,1.1,2
Posted On,2,14000,700,Ground out of 2,Carpet Area,"Kudghat, Ashok Nagar",Kolkata,Unfurnished,Bachelors/Family,2,Contact Owner,,Attached,22.54321769,88.30693973,8.8,2
Posted On,3,8000,750,Ground out of 2,Super Area,"Sakher Bazar, Purba Barisha",Kolkata,Unfurnished,Family,1,Contact Owner,,Common,22.50476736,88.33996748,5.7,2
Posted On,2,8000,1000,Ground out of 1,Super Area,"Purbasan, Thakurpukur",Kolkata,Unfurnished,Bachelors/Family,1,Contact Owner,,Attached,22.4876605,88.37929336,7.1,2
Posted On,1,6000,220,Ground out of 2,Super Area,"Bidhan Pally, Bansdroni",Kolkata,Furnished,Bachelors/Family,1,Contact Owner,,Attached,22.57464823,88.27542922,4.3,2
Posted On,1,8000,300,1 out of 3,Carpet Area,"Naktala, Garia",Kolkata,Semi-Furnished,Bachelors,1,Contact Agent,,Common,22.6532707,88.40943735,1.9,2
Posted On,1,6000,300,Ground out of 1,Carpet Area,Tiljala Road,Kolkata,Unfurnished,Bachelors/Family,1,Contact Agent,,Attached,22.62226819,88.34499493,3.3,2
Posted On,1,20000,700,1 out of 2,Super Area,Sankaritola,Kolkata,Semi-Furnished,Bachelors/Family,1,Contact Owner,,En-suite,22.53044237,88.39102813,2.3,2
Posted On,3,12000,800,Ground out of 1,Super Area,"Parnashree Lake, Behala",Kolkata,Unfurnished,Bachelors/Family,2,Contact Owner,,Attached,22.49876177,88.34541669,2.2,2
Posted On,3,15000,1600,1 out of 3,Super Area,Garia,Kolkata,Unfurnished,Bachelors/Family,2,Contact Owner,,Attached,22.58661226,88.33746288,6.0,2
Posted On,2,14000,1000,1 out of 3,Carpet Area,Kasba,Kolkata,Unfurnished,Bachelors/Family,2,Contact Owner,,Common,22.63278134,88.40667876,9.8,2
Posted On,1,5000,20,2 out of 3,Super Area,Dakshineswar,Kolkata,Unfurnished,Bachelors/Family,1,Contact Owner,,Standard,22.66187618,88.33205321,4.0,2
Posted On,2,7000,400,Ground out of 2,Carpet Area,chatana,Kolkata,Unfurnished,Bachelors/Family,1,Contact Owner,,Common,22.66887859,88.32992562,3.1,2
Posted On,1,3900,200,2 out of 2,Super Area,Shyam Bazar,Kolkata,Furnished,Bachelors/Family,1,Contact Owner,,Attached,22.54526311,88.33021573,1.9,2
Posted On,3,14000,840,1 out of 4,Carpet Area,Mukundapur,Kolkata,Unfurnished,Bachelors,2,Contact Owner,,Common,22.52727275,88.37457357,1.7,2
Posted On,1,6300,300,1 out of 1,Carpet Area,Salt Lake City Sector 5,Kolkata,Unfurnished,Bachelors/Family,1,Contact Agent,,Attached,22.58807139,88.27257228,6.4,2
Posted On,2,13000,550,1 out of 2,Carpet Area,Salt Lake City Sector 5,Kolkata,Furnished,Bachelors/Family,2,Contact Agent,,Attached,22.58664397,88.30679693,8.1,2
Posted On,1,6800,300,1 out of 2,Carpet Area,Salt Lake City Sector 5,Kolkata,Unfurnished,Bachelors/Family,1,Contact Agent,,Attached,22.52270821,88.45845374,4.4,2
Posted On,2,8000,800,1 out of 1,Super Area,Behala Chowrasta,Kolkata,Unfurnished,Bachelors/Family,2,Contact Owner,,Common,22.6146249,88.36712595,8.4,2
Posted On,2,10000,740,Ground out of 6,Carpet Area,Sonarpur,Kolkata,Unfurnished,Bachelors,1,Contact Owner,,En-suite,22.50062421,88.37841191,3.6,2
Posted On,2,18000,1300,1 out of 1,Super Area,Santoshpur,Kolkata,Unfurnished,Bachelors/Family,2,Contact Owner,,Attached,22.58769781,88.40712023,9.7,2
Posted On,2,8000,650,Ground out of 1,Super Area,"Garia Station, Garia",Kolkata,Semi-Furnished,Bachelors/Family,1,Contact Owner,,En-suite,22.52597981,88.42177526,5.6,2
Posted On,2,8000,490,1 out of 1,Super Area,Entally,Kolkata,Semi-Furnished,Bachelors/Family,1,Contact Owner,,En-suite,22.56411338,88.36291036,9.5,2
Posted On,1,4700,250,2 out of 2,Super Area,Kaikhali,Kolkata,Furnished,Bachelors/Family,1,Contact Owner,,Attached,22.5018837,88.2762035,6.2,2
Posted On,1,4700,250,Ground out of 1,Super Area,"Dash Drone, Rajarhat Newtown",Kolkata,Furnished,Bachelors/Family,1,Contact Owner,,Attached,22.5924167,88.42006383,4.8,2
Posted On,1,4500,450,1 out of 2,Super Area,"Rabindra Pally, Keshtopur",Kolkata,Unfurnished,Bachelors/Family,1,Contact Owner,,En-suite,22.58589744,88.41335798,2.7,2
Posted On,1,6000,300,Ground out of 1,Carpet Area,Salt Lake City Sector 1,Kolkata,Semi-Furnished,Bachelors/Family,1,Contact Owner,,Attached,22.53025636,88.32084061,9.3,2
Posted On,2,16000,750,1 out of 3,Super Area,"Rajdanga Gardens, Kasba",Kolkata,Unfurnished,Bachelors/Family,2,Contact Owner,,Attached,22.63230906,88.27895359,3.7,2
Posted On,1,4700,250,1 out of 2,Super Area,Kaikhali,Kolkata,Furnished,Bachelors/Family,1,Contact Owner,,Common,22.60492962,88.30584629,6.5,2
Posted On,2,14000,751,3 out of 3,Carpet Area,Baghajatin,Kolkata,Unfurnished,Bachelors,1,Contact Owner,,Attached,22.65601742,88.39686939,5.7,2
Posted On,2,9000,900,Ground out of 2,Carpet Area,Lake Town,Kolkata,Semi-Furnished,Bachelors,1,Contact Owner,,En-suite,22.57188673,88.40585862,1.0,2
Posted On,2,5000,400,1 out of 3,Carpet Area,Keshtopur,Kolkata,Semi-Furnished,Bachelors/Family,1,Contact Owner,,Attached,22.59980629,88.34845901,9.5,2
Posted On,2,17500,1000,Ground out of 2,Carpet Area,Salt Lake City,Kolkata,Semi-Furnished,Bachelors/Family,2,Contact Agent,,Attached,22.63465772,88.27594439,6.3,2
Posted On,2,8500,1000,Ground out of 1,Carpet Area,South Baksara,Kolkata,Unfurnished,Bachelors/Family,1,Contact Owner,,Attached,22.57570994,88.42082354,6.9,2
Posted On,3,15000,1500,1 out of 1,Carpet Area,"Chandannagar, Hooghly-Chinsurah",Kolkata,Semi-Furnished,Family,2,Contact Owner,,Attached,22.66167864,88.37990799,6.3,2
Posted On,2,12500,750,1 out of 3,Carpet Area,"Sukhpally, Haltu",Kolkata,Unfurnished,Bachelors/Family,2,Contact Owner,,En-suite,22.47546364,88.46367571,1.9,2
Posted On,1,13000,1200,2 out of 4,Super Area,Kasba,Kolkata,Semi-Furnished,Bachelors/Family,1,Contact Owner,,Standard,22.62080611,88.35392289,3.8,2
Posted On,2,8000,700,Ground out of 1,Super Area,"Sakher Bazar, Purba Barisha",Kolkata,Unfurnished,Bachelors/Family,1,Contact Owner,,Attached,22.65622428,88.33960848,5.1,2
Posted On,2,8000,700,4 out of 4,Carpet Area,Garia Dhalua Nabapally,Kolkata,Furnished,Bachelors/Family,1,Contact Owner,,En-suite,22.52524733,88.37599133,5.1,2
Posted On,2,8000,1000,Ground out of 2,Super Area,"Chinar Park, Rajarhat",Kolkata,Semi-Furnished,Bachelors/Family,1,Contact Owner,,Attached,22.54152329,88.40152644,7.9,2
Posted On,2,7000,1200,1 out of 3,Super Area,Konnagar,Kolkata,Unfurnished,Bachelors/Family,2,Contact Owner,,Attached,22.63609961,88.40420355,6.6,2
Posted On,2,2200,550,2 out of 3,Super Area,Behala silpara,Kolkata,Furnished,Bachelors/Family,1,Contact Owner,,Attached,22.63063075,88.4114586,4.3,2
Posted On,2,8000,800,Ground out of 4,Carpet Area,Vip Road,Kolkata,Unfurnished,Bachelors,1,Contact Owner,,Common,22.48195575,88.3992317,6.8,2
Posted On,2,5500,280,1 out of 3,Super Area,New Barrakpur,Kolkata,Unfurnished,Bachelors,1,Contact Owner,,Attached,22.65368655,88.30898743,4.6,2
Posted On,3,20000,1100,Ground out of 2,Super Area,"Thakurpukur, Kolkata",Kolkata,Unfurnished,Bachelors/Family,3,Contact Owner,,Attached,22.66628196,88.43817865,6.7,2
Posted On,2,7000,950,Ground out of 2,Super Area,Kaikhali,Kolkata,Unfurnished,Bachelors/Family,1,Contact Agent,,En-suite,22.47817207,88.31793721,7.7,2
Posted On,1,3500,250,1 out of 2,Super Area,"Phool Bagan, Kankurgachi",Kolkata,Furnished,Bachelors/Family,1,Contact Owner,,Attached,22.5727381,88.2825485,6.0,2
Posted On,2,5000,1000,Ground out of 2,Carpet Area,Hindmotor,Kolkata,Unfurnished,Bachelors,1,Contact Owner,,Attached,22.6358142,88.37399166,1.4,2
Posted On,3,20000,1000,Ground out of 2,Carpet Area,Salt Lake City Sector 1,Kolkata,Semi-Furnished,Bachelors/Family,2,Contact Owner,,Standard,22.544114,88.29617686,3.5,2
Posted On,2,7000,650,Ground out of 2,Super Area,Howrah,Kolkata,Unfurnished,Bachelors/Family,1,Contact Owner,,Attached,22.56454072,88.44224782,1.8,2
Posted On,2,10000,700,1 out of 2,Super Area,Benia Pukur,Kolkata,Unfurnished,Bachelors/Family,2,Contact Owner,,Common,22.61329514,88.44428958,8.5,2
Posted On,2,7000,700,Ground out of 3,Carpet Area,Baguiati,Kolkata,Unfurnished,Bachelors,1,Contact Owner,,Attached,22.56984868,88.30848927,5.9,2
Posted On,3,12000,1000,Ground out of 3,Super Area,E M Bypass,Kolkata,Semi-Furnished,Bachelors/Family,2,Contact Owner,,Attached,22.55394495,88.42154719,6.2,2
Posted On,2,14500,900,1 out of 4,Carpet Area,"Panchanan Tola, Thakurpukur",Kolkata,Unfurnished,Bachelors,2,Contact Owner,,Attached,22.49341548,88.34592271,6.2,2
Posted On,1,6000,700,1 out of 2,Super Area,"VIP Nagar, E M Bypass",Kolkata,Unfurnished,Bachelors/Family,1,Contact Owner,,Common,22.5752193,88.38651828,2.9,2
Posted On,2,9500,700,1 out of 2,Super Area,Jadavpur,Kolkata,Unfurnished,Bachelors/Family,2,Contact Owner,,Attached,22.47520056,88.46269212,9.9,2
Posted On,2,10000,450,2 out of 1,Carpet Area,Behala,Kolkata,Semi-Furnished,Bachelors/Family,2,Contact Owner,,Common,22.53648006,88.26646248,6.3,2
Posted On,1,3500,120,Ground out of 3,Super Area,Dum Dum Cantonment,Kolkata,Unfurnished,Bachelors/Family,1,Contact Owner,,Attached,22.55517708,88.41878368,2.4,2
Posted On,2,9000,800,1 out of 2,Super Area,"New Garia, Garia",Kolkata,Semi-Furnished,Bachelors/Family,2,Contact Owner,,Attached,22.54424784,88.4264113,3.4,2
Posted On,3,40000,1220,2 out of 3,Carpet Area,Salt Lake City Sector 3,Kolkata,Unfurnished,Bachelors/Family,2,Contact Owner,,Attached,22.57630144,88.42455546,9.0,2
Posted On,3,16500,1100,Ground out of 3,Super Area,Mominpur,Kolkata,Unfurnished,Bachelors/Family,1,Contact Owner,,Common,22.51259929,88.43838771,3.0,2
Posted On,3,8000,700,Ground out of 3,Carpet Area,"Halisahar Station Road, Kanchrapara",Kolkata,Unfurnished,Family,2,Contact Owner,,En-suite,22.50784281,88.29556467,4.5,2
Posted On,2,12000,800,Ground out of 3,Super Area,Santoshpur,Kolkata,Furnished,Bachelors/Family,1,Contact Owner,,Attached,22.55546166,88.28193107,9.2,2
Posted On,2,6500,670,2 out of 2,Super Area,"Dunlop, Dakshineswar, Belgharia Expressway",Kolkata,Unfurnished,Family,1,Contact Owner,,Common,22.66062544,88.39007914,4.2,2
Posted On,4,40000,1300,1 out of 2,Super Area,Ballygunge,Kolkata,Unfurnished,Bachelors/Family,3,Contact Owner,,Common,22.63187585,88.36066642,8.8,2
Posted On,1,5000,190,Ground out of 2,Super Area,Baguihati,Kolkata,Semi-Furnished,Bachelors/Family,1,Contact Owner,,Standard,22.58291131,88.35314066,6.4,2
Posted On,2,9000,700,Ground out of 2,Super Area,Kabardanga,Kolkata,Semi-Furnished,Bachelors/Family,1,Contact Owner,,Attached,22.64718003,88.29575993,9.9,2
Posted On,1,7000,240,Ground out of 4,Carpet Area,Jadavpur,Kolkata,Unfurnished,Bachelors,1,Contact Owner,,Attached,22.58258782,88.34255997,9.1,2
Posted On,2,18000,850,2 out of 4,Carpet Area,Behala Chowrasta,Kolkata,Semi-Furnished,Family,1,Contact Owner,,En-suite,22.63442377,88.38306877,3.0,2
Posted On,1,9000,950,1 out of 2,Super Area,Haltu,Kolkata,Unfurnished,Bachelors/Family,2,Contact Owner,,Attached,22.50302096,88.34360032,1.8,2
Posted On,1,5500,450,1 out of 2,Carpet Area,Botanical Garden Area,Kolkata,Furnished,Bachelors/Family,1,Contact Owner,,Common,22.60892746,88.43719485,1.1,2
Posted On,2,7500,800,Ground out of 2,Carpet Area,Bonhooghly,Kolkata,Unfurnished,Bachelors,1,Contact Owner,,Attached,22.52740061,88.44139403,7.8,2
Posted On,2,4000,600,1 out of 2,Carpet Area,Nilgung Old Bazar,Kolkata,Unfurnished,Bachelors/Family,1,Contact Owner,,Attached,22.53005865,88.33325621,1.3,2
Posted On,3,10500,800,2 out of 2,Carpet Area,"Teghoria, Baguiati",Kolkata,Unfurnished,Bachelors,2,Contact Owner,,Common,22.53012026,88.37654803,2.9,2
Posted On,3,15000,1100,Ground out of 2,Carpet Area,Survey Park,Kolkata,Unfurnished,Bachelors/Family,2,Contact Owner,,En-suite,22.62275851,88.38267871,1.9,2
Posted On,2,15000,800,Ground out of 2,Carpet Area,Baguiati,Kolkata,Furnished,Bachelors/Family,1,Contact Owner,,Attached,22.52344245,88.27648507,6.2,2
Posted On,1,50000,2200,2 out of 5,Super Area,Kanchrapara,Kolkata,Furnished,Bachelors/Family,3,Contact Owner,,Standard,22.59067066,88.42801922,4.0,2
Posted On,2,12000,950,1 out of 1,Carpet Area,"Jote Shibrampur, Joth Shibrampur",Kolkata,Unfurnished,Bachelors,2,Contact Owner,,Attached,22.55959857,88.41042087,9.7,2
Posted On,2,11000,550,2 out of 3,Carpet Area,Ultadanga,Kolkata,Unfurnished,Bachelors/Family,1,Contact Owner,,Common,22.51758838,88.27107526,8.0,2
Posted On,2,12000,1800,1 out of 1,Carpet Area,Birati,Kolkata,Unfurnished,Bachelors,2,Contact Owner,,Attached,22.60403879,88.32723867,8.7,2
Posted On,2,8000,1000,Ground out of 2,Super Area,"Chinar Park, Rajarhat",Kolkata,Furnished,Bachelors/Family,1,Contact Owner,,Common,22.54662136,88.38223696,6.1,2
Posted On,2,18000,600,Ground out of 3,Super Area,Bagha Jatin Pally,Kolkata,Semi-Furnished,Bachelors/Family,2,Contact Owner,,En-suite,22.48885551,88.4285258,3.5,2
Posted On,2,8000,750,2 out of 4,Carpet Area,rishi aurobindo sarani neat NIOH hospital,Kolkata,Semi-Furnished,Bachelors/Family,2,Contact Owner,,Attached,22.48788655,88.28950067,1.7,2
Posted On,2,7000,685,2 out of 3,Super Area,Dum Dum Metro,Kolkata,Unfurnished,Bachelors/Family,1,Contact Agent,,Attached,22.63421798,88.42577622,3.5,2
Posted On,1,6500,44,Ground out of 1,Carpet Area,Baranagar,Kolkata,Furnished,Bachelors/Family,1,Contact Owner,,Attached,22.56991141,88.31816573,6.9,2
Posted On,4,13000,1200,Ground out of 2,Carpet Area,Tollygunge,Kolkata,Unfurnished,Bachelors/Family,1,Contact Owner,,Attached,22.57535172,88.28614053,9.3,2
Posted On,2,9000,500,Ground out of 2,Carpet Area,Airport Near Gate No. 21/2,Kolkata,Unfurnished,Bachelors,1,Contact Owner,,Attached,22.59428741,88.41948369,1.2,2
Posted On,4,10000,1110,2 out of 2,Carpet Area,Purbasa,Kolkata,Unfurnished,Bachelors/Family,2,Contact Owner,,Standard,22.54413836,88.4382111,9.8,2
Posted On,2,12000,1000,1 out of 3,Super Area,Jadavpur,Kolkata,Unfurnished,Bachelors/Family,2,Contact Owner,,Attached,22.51336572,88.33073481,8.8,2
Posted On,2,5000,392,Ground out of 2,Super Area,Jadavpur,Kolkata,Unfurnished,Bachelors/Family,1,Contact Owner,,Attached,22.52906012,88.32812075,6.6,2
Posted On,2,6000,700,1 out of 2,Super Area,Barasat-Barrackpore Road,Kolkata,Unfurnished,Bachelors/Family,1,Contact Owner,,Attached,22.49419741,88.32231545,7.9,2
Posted On,1,5200,750,2 out of 4,Super Area,Keshtopur,Kolkata,Unfurnished,Bachelors/Family,1,Contact Owner,,Attached,22.63001799,88.31379613,6.0,2
Posted On,3,15000,1500,1 out of 2,Super Area,"Biren Roy Road (W) Chowrashtra Behala, Raja Rammohan Roy Road",Kolkata,Unfurnished,Family,2,Contact Owner,,En-suite,22.54107944,88.36703227,4.4,2
Posted On,2,9000,900,Ground out of 1,Super Area,Keshtopur,Kolkata,Unfurnished,Bachelors/Family,2,Contact Owner,,Common,22.60050703,88.43430731,5.2,2
Posted On,1,24000,710,1 out of 1,Super Area,Salt Lake City Sector 1,Kolkata,Furnished,Bachelors,1,Contact Agent,,En-suite,22.5132558,88.41540527,4.5,2
Posted On,1,5500,400,Ground out of 3,Carpet Area,jadavpur central park east,Kolkata,Unfurnished,Bachelors/Family,1,Contact Owner,,Attached,22.63075621,88.3177253,2.8,2
Posted On,1,10000,700,1 out of 2,Carpet Area,Garia,Kolkata,Unfurnished,Bachelors,1,Contact Owner,,Standard,22.58651728,88.45255727,2.5,2
Posted On,2,15000,1000,Ground out of 2,Carpet Area,Tn Chatterjee Street,Kolkata,Semi-Furnished,Bachelors/Family,1,Contact Owner,,Common,22.54779309,88.43783379,3.2,2
Posted On,1,4700,250,1 out of 2,Super Area,Kaikhali,Kolkata,Furnished,Bachelors/Family,1,Contact Owner,,Attached,22.66931217,88.38953241,1.4,2
Posted On,1,5000,500,Ground out of 3,Carpet Area,Bata Nagar,Kolkata,Semi-Furnished,Bachelors/Family,1,Contact Owner,,Attached,22.54507132,88.42255714,1.5,2
Posted On,2,5000,450,2 out of 2,Carpet Area,Birati,Kolkata,Semi-Furnished,Bachelors/Family,1,Contact Owner,,Attached,22.56197704,88.4428948,5.6,2
Posted On,3,15000,1400,1 out of 3,Super Area,Survey Park,Kolkata,Unfurnished,Bachelors/Family,1,Contact Owner,,Attached,22.56734019,88.31103588,9.0,2
Posted On,1,5000,500,1 out of 1,Carpet Area,Bata Nagar,Kolkata,Semi-Furnished,Bachelors/Family,1,Contact Owner,,Common,22.47373759,88.45775468,9.2,2
Posted On,2,6000,700,Ground out of 1,Carpet Area,Hatiara Extention,Kolkata,Unfurnished,Bachelors/Family,1,Contact Owner,,Attached,22.6296675,88.45259049,3.4,2
Posted On,3,18000,1200,1 out of 3,Carpet Area,Salt Lake City Sector 1,Kolkata,Semi-Furnished,Bachelors/Family,1,Contact Owner,,Attached,22.61366799,88.2855802,4.7,2
Posted On,2,8000,450,1 out of 2,Carpet Area,Andul,Kolkata,Unfurnished,Bachelors,1,Contact Owner,,En-suite,22.53547196,88.35722384,8.6,2
Posted On,1,13000,500,2 out of 2,Carpet Area,Salt Lake City Sector 2,Kolkata,Furnished,Bachelors,1,Contact Agent,,Standard,22.54455723,88.35126681,9.0,2
Posted On,2,7500,400,Ground out of 1,Carpet Area,locality,Kolkata,Unfurnished,Bachelors/Family,1,Contact Owner,,Attached,22.63628417,88.40302506,3.6,2
Posted On,3,12000,1000,Ground out of 1,Super Area,Khardah,Kolkata,Unfurnished,Bachelors/Family,2,Contact Owner,,Common,22.65738182,88.38834823,7.2,2
Posted On,2,11000,750,Ground out of 1,Carpet Area,Parnasree Pally,Kolkata,Unfurnished,Bachelors,1,Contact Owner,,Attached,22.47809319,88.39269891,6.2,2
Posted On,1,6000,450,Ground out of 2,Super Area,Baghajatin,Kolkata,Unfurnished,Family,1,Contact Owner,,Common,22.47648214,88.42116272,3.5,2
Posted On,3,20000,1000,1 out of 2,Carpet Area,Salt Lake City Sector 3,Kolkata,Unfurnished,Bachelors,2,Contact Agent,,Attached,22.6354872,88.29036374,9.5,2
Posted On,2,7000,500,1 out of 1,Carpet Area,sarsuna banerjee para,Kolkata,Unfurnished,Bachelors,2,Contact Owner,,Common,22.50268461,88.39445077,6.5,2
Posted On,4,30000,1600,Ground out of 1,Carpet Area,Salt Lake City Sector 3,Kolkata,Unfurnished,Bachelors,2,Contact Agent,,Attached,22.58509539,88.4504153,1.9,2
Posted On,2,7500,550,Ground out of 1,Carpet Area,Near Seven Tanks Road Dumdum Station,Kolkata,Unfurnished,Bachelors,1,Contact Owner,,Attached,22.55807142,88.4384422,4.6,2
Posted On,1,6500,550,1 out of 2,Super Area,Jyangra,Kolkata,Unfurnished,Bachelors/Family,2,Contact Owner,,Attached,22.53366183,88.4316065,3.1,2
Posted On,1,3000,200,2 out of 3,Super Area,Barasat,Kolkata,Unfurnished,Bachelors/Family,1,Contact Owner,,Attached,22.48969848,88.34525394,2.4,2
Posted On,2,5200,650,1 out of 2,Carpet Area,Sukchar,Kolkata,Unfurnished,Bachelors,1,Contact Owner,,Attached,22.55992593,88.26891347,5.0,2
Posted On,2,25000,1000,1 out of 1,Super Area,"Tagore Park, Kasba",Kolkata,Furnished,Bachelors/Family,2,Contact Owner,,Attached,22.59402631,88.39165315,6.0,2
Posted On,2,12500,680,Ground out of 2,Carpet Area,Barrackpore,Kolkata,Unfurnished,Bachelors/Family,2,Contact Owner,,En-suite,22.59320184,88.2653568,1.4,2
Posted On,2,8500,720,Ground out of 1,Carpet Area,"Silpara, Purba Barisha",Kolkata,Unfurnished,Bachelors/Family,2,Contact Owner,,Attached,22.63501689,88.30090358,7.3,2
Posted On,2,3500,500,4 out of 5,Carpet Area,Konnagar,Kolkata,Unfurnished,Bachelors,1,Contact Owner,,Attached,22.62301729,88.46202464,5.9,2
Posted On,2,7000,800,Ground out of 2,Super Area,Madhyam Gram,Kolkata,Unfurnished,Bachelors/Family,1,Contact Owner,,Attached,22.56696272,88.3700267,1.1,2
Posted On,1,3000,160,Ground out of 1,Super Area,"Kudghat, Ashok Nagar",Kolkata,Unfurnished,Bachelors/Family,1,Contact Owner,,En-suite,22.48192974,88.38230221,7.2,2
Posted On,2,14000,1200,1 out of 2,Carpet Area,Salt Lake City Sector 5,Kolkata,Unfurnished,Bachelors/Family,2,Contact Agent,,Attached,22.62529393,88.33895752,2.0,2
Posted On,1,18000,700,Ground out of 4,Super Area,Salt Lake City Sector 3,Kolkata,Furnished,Bachelors/Family,1,Contact Owner,,Attached,22.51880161,88.37346961,8.6,2
Posted On,1,3500,1000,Ground out of 1,Super Area,Dum Dum Cantonment,Kolkata,Semi-Furnished,Bachelors/Family,1,Contact Owner,,Attached,22.47621629,88.42749518,9.2,2
Posted On,2,16000,1250,Ground out of 1,Super Area,Kasba,Kolkata,Unfurnished,Bachelors/Family,2,Contact Agent,,Attached,22.5966525,88.29724859,1.6,2
Posted On,4,35000,1600,Ground out of 3,Super Area,Salt Lake City,Kolkata,Unfurnished,Bachelors/Family,3,Contact Owner,,Attached,22.62777139,88.36334811,4.5,2
Posted On,2,21000,700,Ground out of 2,Super Area,Lake Gardens,Kolkata,Semi-Furnished,Bachelors/Family,1,Contact Owner,,Attached,22.63557474,88.40878567,1.3,2
Posted On,1,4500,450,Ground out of 2,Super Area,"Silpara, Purba Barisha",Kolkata,Unfurnished,Bachelors/Family,1,Contact Owner,,Attached,22.5138887,88.39695757,6.6,2
Posted On,2,15000,839,1 out of 3,Super Area,Howrah,Kolkata,Semi-Furnished,Bachelors/Family,2,Contact Owner,,Attached,22.49865907,88.27228634,4.3,2
Posted On,1,4500,230,Ground out of 3,Super Area,Birati,Kolkata,Unfurnished,Bachelors/Family,1,Contact Owner,,Attached,22.66920164,88.3617382,1.3,2
Posted On,1,5500,1800,Ground out of 2,Super Area,Baranagar,Kolkata,Unfurnished,Bachelors/Family,1,Contact Owner,,Attached,22.62360059,88.38396799,1.9,2
Posted On,2,8500,800,1 out of 2,Super Area,Baguihati,Kolkata,Unfurnished,Bachelors/Family,2,Contact Owner,,En-suite,22.6578091,88.32423846,4.2,2
Posted On,1,5000,500,Ground out of 1,Carpet Area,BRAHMAPUR NEAR BANSDRONI,Kolkata,Semi-Furnished,Bachelors/Family,1,Contact Owner,,Standard,22.55311037,88.31630159,2.3,2
Posted On,2,8500,620,Ground out of 1,Carpet Area,Kasba,Kolkata,Unfurnished,Bachelors,1,Contact Owner,,Common,22.54283721,88.32283911,2.2,2
Posted On,2,9000,650,2 out of 3,Carpet Area,tollygunge Kabardanga,Kolkata,Unfurnished,Bachelors/Family,1,Contact Owner,,Common,22.5026773,88.38626774,5.3,2
Posted On,1,7500,550,1 out of 2,Super Area,"Naktala, Garia",Kolkata,Semi-Furnished,Bachelors/Family,1,Contact Agent,,En-suite,22.57807386,88.377453,4.8,2
Posted On,2,7000,450,1 out of 3,Carpet Area,safuipara,Kolkata,Furnished,Bachelors,2,Contact Owner,,Attached,22.6468959,88.38835888,2.0,2
Posted On,3,15000,1350,1 out of 2,Carpet Area,"Annapurna Apartment, Rajarhat Chowmatha",Kolkata,Unfurnished,Family,2,Contact Owner,,Standard,22.47773113,88.35547061,1.5,2
Posted On,2,7000,600,2 out of 2,Super Area,"Park Circus, Ballygunge",Kolkata,Semi-Furnished,Bachelors/Family,2,Contact Owner,,Attached,22.50830746,88.40893419,4.4,2
Posted On,3,10000,1200,2 out of 4,Super Area,Belghoria,Kolkata,Furnished,Bachelors/Family,1,Contact Owner,,Attached,22.66213106,88.28799555,2.0,2
Posted On,2,7000,700,1 out of 2,Super Area,"Haridevpur, Paschim Putiary",Kolkata,Unfurnished,Bachelors/Family,1,Contact Agent,,Standard,22.5040553,88.36293546,2.5,2
Posted On,3,3200,800,1 out of 3,Carpet Area,Bhawanipur,Kolkata,Furnished,Bachelors/Family,2,Contact Owner,,Attached,22.49845067,88.32525414,6.3,2
Posted On,2,6000,600,Ground out of 3,Carpet Area,Santoshpur,Kolkata,Semi-Furnished,Bachelors/Family,1,Contact Owner,,Attached,22.55599163,88.26585805,6.2,2
Posted On,2,12000,900,1 out of 3,Super Area,Tollygunge,Kolkata,Unfurnished,Bachelors/Family,2,Contact Owner,,Common,22.61639015,88.40568289,5.1,2
Posted On,2,6000,750,Ground out of 1,Super Area,Behala,Kolkata,Unfurnished,Bachelors/Family,1,Contact Owner,,Attached,22.51659091,88.40955449,7.5,2
Posted On,3,10000,1250,1 out of 2,Super Area,Jaffarpore Rifle Range Road,Kolkata,Unfurnished,Bachelors/Family,2,Contact Owner,,Attached,22.47852747,88.37176761,7.4,2
Posted On,3,12000,1000,2 out of 2,Super Area,Dariya,Kolkata,Semi-Furnished,Bachelors/Family,3,Contact Owner,,Attached,22.60226534,88.44825182,2.2,2
Posted On,2,8000,600,Ground out of 2,Super Area,Howrah,Kolkata,Semi-Furnished,Bachelors/Family,1,Contact Owner,,Attached,22.53065481,88.40609252,9.3,2
Posted On,2,5300,650,1 out of 1,Carpet Area,Sodepur,Kolkata,Unfurnished,Bachelors/Family,1,Contact Owner,,Attached,22.49152135,88.37010566,9.1,2
Posted On,2,5000,450,2 out of 3,Carpet Area,Liluah,Kolkata,Unfurnished,Bachelors,1,Contact Owner,,Standard,22.57644038,88.26921332,8.9,2
Posted On,3,8500,800,Ground out of 2,Super Area,Near DumDum Metro,Kolkata,Unfurnished,Bachelors/Family,2,Contact Owner,,Common,22.65335073,88.31569352,9.2,2
Posted On,3,22000,1000,Ground out of 3,Carpet Area,"Sukanta Nagar, New Barrakpur",Kolkata,Semi-Furnished,Bachelors/Family,2,Contact Owner,,Standard,22.50140346,88.44262809,4.0,2
Posted On,2,7000,1000,Ground out of 3,Super Area,"Kumarpara, Narendrapur",Kolkata,Unfurnished,Bachelors/Family,1,Contact Owner,,Attached,22.6217074,88.44264223,8.0,2
Posted On,3,25000,1400,5 out of 5,Carpet Area,Salt Lake City,Kolkata,Furnished,Bachelors,3,Contact Agent,,Common,22.6628354,88.28799661,2.2,2
Posted On,2,7000,600,1 out of 4,Carpet Area,Barrackpore,Kolkata,Semi-Furnished,Bachelors,1,Contact Owner,,Attached,22.57457926,88.3369948,8.7,2
Posted On,2,15000,723,Ground out of 3,Carpet Area,Narendrapur,Kolkata,Furnished,Family,1,Contact Owner,,Common,22.51406188,88.34508208,5.8,2
Posted On,1,6000,320,Ground out of 2,Carpet Area,Sahid Nagar,Kolkata,Unfurnished,Bachelors/Family,1,Contact Owner,,Attached,22.63460677,88.34637108,9.7,2
Posted On,2,8000,900,Ground out of 3,Super Area,Belghoria,Kolkata,Semi-Furnished,Bachelors/Family,1,Contact Owner,,Attached,22.65833383,88.46386889,7.9,2
Posted On,3,40000,1400,Ground out of 2,Carpet Area,Salt Lake City Sector 2,Kolkata,Furnished,Bachelors/Family,2,Contact Agent,,Attached,22.60915612,88.46044937,3.4,2
Posted On,1,6000,2160,1 out of 2,Super Area,Kasba,Kolkata,Semi-Furnished,Bachelors,1,Contact Owner,,En-suite,22.49294591,88.41378425,2.7,2
Posted On,2,15000,650,Ground out of 2,Carpet Area,kasba bosepukur,Kolkata,Semi-Furnished,Bachelors/Family,1,Contact Owner,,Attached,22.58915118,88.4531004,3.6,2
Posted On,2,6500,800,1 out of 1,Super Area,Kanchrapara,Kolkata,Semi-Furnished,Bachelors/Family,1,Contact Owner,,Attached,22.58821526,88.34024742,2.4,2
Posted On,3,8000,800,2 out of 3,Super Area,Bansdroni,Kolkata,Semi-Furnished,Bachelors/Family,1,Contact Owner,,Attached,22.66105494,88.35040354,5.8,2
Posted On,1,5500,500,Ground out of 2,Carpet Area,"Garia Station, Garia",Kolkata,Unfurnished,Bachelors/Family,1,Contact Owner,,Attached,22.65454927,88.39030306,7.4,2
Posted On,3,9000,1700,1 out of 2,Super Area,Panchanantala Road,Kolkata,Semi-Furnished,Bachelors/Family,2,Contact Owner,,En-suite,22.54492499,88.46065996,8.4,2
Posted On,1,6000,130,Ground out of 2,Carpet Area,Bow Bazar,Kolkata,Semi-Furnished,Bachelors/Family,1,Contact Owner,,Attached,22.65152836,88.29797769,1.8,2
Posted On,1,15000,505,Ground out of 3,Super Area,Kasba,Kolkata,Furnished,Bachelors/Family,1,Contact Owner,,Attached,22.61082355,88.28383964,3.5,2
Posted On,4,30000,4000,Ground out of 3,Super Area,"Sakher Bazar, Purba Barisha",Kolkata,Furnished,Bachelors/Family,3,Contact Agent,,En-suite,22.66009339,88.2735115,6.5,2
Posted On,3,30000,1250,Ground out of 2,Super Area,New Alipore,Kolkata,Unfurnished,Bachelors/Family,2,Contact Owner,,Common,22.48390151,88.32206366,3.8,2
Posted On,1,5000,700,Ground out of 2,Carpet Area,My Own House,Kolkata,Unfurnished,Bachelors/Family,1,Contact Owner,,Attached,22.61125762,88.45868264,4.4,2
Posted On,2,15000,900,Ground out of 1,Super Area,"Park Circus, Ballygunge",Kolkata,Unfurnished,Bachelors,1,Contact Owner,,Attached,22.61663137,88.30589635,6.6,2
Posted On,1,6500,650,1 out of 1,Super Area,Joka,Kolkata,Semi-Furnished,Bachelors/Family,1,Contact Owner,,Attached,22.65177004,88.36217149,1.1,2
Posted On,2,4500,750,Ground out of 1,Super Area,Azadgarh,Kolkata,Furnished,Bachelors/Family,1,Contact Owner,,Attached,22.49757424,88.35597132,2.6,2
Posted On,2,7000,450,Ground out of 3,Carpet Area,Mandirtala,Kolkata,Unfurnished,Bachelors/Family,1,Contact Owner,,Attached,22.49031445,88.33699142,2.4,2
Posted On,1,6500,350,1 out of 2,Carpet Area,Dhakuria,Kolkata,Semi-Furnished,Bachelors/Family,1,Contact Owner,,Standard,22.55630358,88.45698689,5.0,2
Posted On,1,17500,480,1 out of 2,Carpet Area,Rabindra Sarovar Metro,Kolkata,Furnished,Bachelors,2,Contact Owner,,Standard,22.55880599,88.26548236,5.5,2
Posted On,2,10000,900,Ground out of 3,Super Area,Garia,Kolkata,Unfurnished,Bachelors/Family,1,Contact Owner,,Attached,22.63971115,88.42257716,4.5,2
Posted On,1,1500,200,Ground out of 2,Super Area,Santoshpur,Kolkata,Semi-Furnished,Bachelors/Family,1,Contact Owner,,Attached,22.5498813,88.41550104,4.1,2
Posted On,3,25000,1100,2 out of 3,Super Area,"Regent Estate, Bijoygarh",Kolkata,Unfurnished,Bachelors/Family,3,Contact Owner,,Common,22.48889402,88.42004719,4.0,2
Posted On,2,12000,800,1 out of 2,Carpet Area,Kasba,Kolkata,Unfurnished,Bachelors/Family,1,Contact Owner,,Standard,22.63035323,88.26855303,8.2,2
Posted On,3,7500,1000,Ground out of 2,Carpet Area,south station pally dankuni,Kolkata,Furnished,Bachelors/Family,2,Contact Owner,,Common,22.60910902,88.3738554,1.9,2
Posted On,1,7000,800,1 out of 2,Carpet Area,Kumargali,Kolkata,Unfurnished,Bachelors/Family,1,Contact Owner,,Attached,22.59637753,88.31410854,2.3,2
Posted On,1,3500,200,Upper Basement out of 4,Super Area,Baguihati,Kolkata,Semi-Furnished,Bachelors/Family,1,Contact Owner,,Attached,22.66040269,88.4366499,8.8,2
Posted On,3,10000,1190,1 out of 2,Carpet Area,Sarsuna,Kolkata,Unfurnished,Bachelors/Family,2,Contact Owner,,Attached,22.49615328,88.30523236,8.1,2
Posted On,2,14000,900,Ground out of 2,Carpet Area,Salt Lake City,Kolkata,Unfurnished,Bachelors,2,Contact Agent,,Attached,22.6450518,88.42358356,1.8,2
Posted On,2,15000,1500,Ground out of 2,Super Area,Garia,Kolkata,Unfurnished,Bachelors/Family,2,Contact Owner,,Attached,22.48490621,88.37451426,4.2,2
Posted On,2,6500,600,2 out of 3,Super Area,Thakurpukur,Kolkata,Unfurnished,Bachelors/Family,1,Contact Owner,,Attached,22.6461738,88.33929459,5.2,2
Posted On,3,10000,800,Ground out of 4,Super Area,Brahmapur,Kolkata,Unfurnished,Bachelors/Family,1,Contact Owner,,Common,22.63221385,88.42212365,9.8,2
Posted On,2,10500,800,1 out of 2,Carpet Area,Santoshpur,Kolkata,Unfurnished,Family,2,Contact Owner,,Attached,22.58952414,88.36012781,2.6,2
Posted On,3,10000,900,Ground out of 3,Carpet Area,Garia,Kolkata,Semi-Furnished,Bachelors/Family,2,Contact Owner,,Standard,22.64563603,88.44517957,7.0,2
Posted On,1,5000,350,Ground out of 3,Carpet Area,Purba Barisha,Kolkata,Semi-Furnished,Bachelors/Family,1,Contact Owner,,Standard,22.5485881,88.31387177,1.6,2
Posted On,2,9000,800,Ground out of 2,Carpet Area,Sodepur,Kolkata,Unfurnished,Bachelors/Family,1,Contact Owner,,Attached,22.53387235,88.41997044,6.8,2
Posted On,2,20000,1600,Ground out of 3,Carpet Area,Jadavpur University,Kolkata,Unfurnished,Bachelors,2,Contact Owner,,Attached,22.65324718,88.38403235,4.6,2
Posted On,3,35000,1012,2 out of 3,Carpet Area,Salt Lake City Sector 1,Kolkata,Semi-Furnished,Bachelors/Family,2,Contact Owner,,Attached,22.54222828,88.35875742,2.9,2
Posted On,3,15000,1200,Ground out of 2,Carpet Area,"Pathak Para, Behala",Kolkata,Unfurnished,Bachelors,2,Contact Owner,,Attached,22.52716214,88.40984628,8.0,2
Posted On,2,20000,700,1 out of 2,Super Area,Salt Lake City Sector 1,Kolkata,Furnished,Bachelors/Family,1,Contact Owner,,Attached,22.47472037,88.4131055,6.3,2
Posted On,2,12000,1000,1 out of 3,Super Area,Behala,Kolkata,Semi-Furnished,Bachelors/Family,1,Contact Owner,,Attached,22.60754691,88.42636638,1.7,2
Posted On,2,8000,800,Ground out of 3,Carpet Area,Thakurpukur,Kolkata,Unfurnished,Bachelors,1,Contact Owner,,Attached,22.52651496,88.42541962,9.5,2
Posted On,1,3000,500,Ground out of 1,Super Area,Hatiara,Kolkata,Semi-Furnished,Bachelors/Family,1,Contact Owner,,Attached,22.5353392,88.26500811,2.8,2
Posted On,3,20000,1200,Ground out of 1,Carpet Area,"Haridevpur, Paschim Putiary",Kolkata,Semi-Furnished,Bachelors,2,Contact Owner,,En-suite,22.65423844,88.43282948,9.7,2
Posted On,1,9000,450,Ground out of 2,Carpet Area,Salt Lake City Sector 2,Kolkata,Unfurnished,Bachelors,1,Contact Agent,,Attached,22.65045375,88.42943332,7.1,2
Posted On,3,13000,950,Ground out of 2,Carpet Area,"Rabindrapally, Garia",Kolkata,Unfurnished,Bachelors/Family,2,Contact Owner,,Attached,22.51417043,88.39064699,2.1,2
Posted On,1,7000,350,Ground out of 2,Carpet Area,Salt Lake City Sector 5,Kolkata,Unfurnished,Bachelors/Family,1,Contact Agent,,Common,22.58119608,88.43379805,7.7,2
Posted On,1,9000,450,Ground out of 3,Carpet Area,Salt Lake City Sector 5,Kolkata,Unfurnished,Bachelors/Family,1,Contact Agent,,Common,22.66482877,88.40487219,7.3,2
Posted On,1,9000,550,Ground out of 2,Carpet Area,"Bangur Avenue, Lake Town",Kolkata,Semi-Furnished,Bachelors,1,Contact Owner,,Standard,22.48540251,88.27903009,1.7,2
Posted On,2,10000,300,Ground out of 1,Carpet Area,Keshtopur,Kolkata,Unfurnished,Bachelors,1,Contact Owner,,En-suite,22.59313644,88.26545368,8.4,2
Posted On,3,15000,1250,Ground out of 3,Super Area,"Sakher Bazar, Purba Barisha",Kolkata,Semi-Furnished,Bachelors/Family,2,Contact Owner,,Common,22.62194798,88.42983467,9.9,2
Posted On,2,7000,700,2 out of 3,Super Area,Garia,Kolkata,Unfurnished,Bachelors/Family,1,Contact Owner,,Common,22.49885186,88.34093734,1.8,2
Posted On,3,8000,812,Ground out of 3,Super Area,Hooghly,Kolkata,Unfurnished,Bachelors/Family,2,Contact Owner,,Attached,22.51682736,88.44585277,2.3,2
Posted On,2,8000,550,Ground out of 2,Super Area,"Kalabagan, Tollygunge",Kolkata,Unfurnished,Bachelors/Family,1,Contact Owner,,Attached,22.61472038,88.29092209,9.1,2
Posted On,1,5000,500,Ground out of 1,Super Area,Rishra,Kolkata,Semi-Furnished,Bachelors/Family,1,Contact Owner,,Attached,22.50035118,88.3260006,8.6,2
Posted On,1,14000,320,1 out of 2,Carpet Area,"Action Area 3, Rajarhat Newtown",Kolkata,Furnished,Bachelors,1,Contact Owner,,Attached,22.65404605,88.40908658,4.2,2
Posted On,2,5000,600,Ground out of 2,Super Area,"Anandapuri, Barrackpore",Kolkata,Unfurnished,Bachelors/Family,1,Contact Owner,,Attached,22.62251838,88.35669836,6.5,2
Posted On,2,5000,420,Ground out of 2,Carpet Area,Barasat,Kolkata,Unfurnished,Bachelors,1,Contact Owner,,Common,22.63583955,88.26449469,3.0,2
Posted On,3,12000,1100,Ground out of 2,Super Area,Rabindrapally Kestopur,Kolkata,Unfurnished,Bachelors,1,Contact Owner,,Attached,22.64426808,88.39102138,2.5,2
Posted On,1,3200,220,3 out of 4,Super Area,Sodepur,Kolkata,Unfurnished,Bachelors/Family,1,Contact Owner,,Attached,22.63757798,88.31008456,1.5,2
Posted On,2,8500,700,Ground out of 2,Carpet Area,Nungi More,Kolkata,Semi-Furnished,Bachelors/Family,2,Contact Owner,,Common,22.58520134,88.31771171,7.1,2
Posted On,3,16000,1200,Ground out of 2,Carpet Area,"Baishnabghata, Garia",Kolkata,Unfurnished,Bachelors/Family,2,Contact Agent,,Attached,22.49716779,88.44288699,6.7,2
Posted On,2,14000,800,Ground out of 3,Carpet Area,Santoshpur - EM Bypass,Kolkata,Unfurnished,Bachelors/Family,2,Contact Owner,,Attached,22.47416004,88.42416489,5.4,2
Posted On,1,8000,300,Ground out of 1,Carpet Area,Bansdroni,Kolkata,Furnished,Bachelors,1,Contact Agent,,Attached,22.57716866,88.30143622,2.9,2
Posted On,2,7000,650,Ground out of 2,Carpet Area,Baruipur,Kolkata,Unfurnished,Bachelors/Family,1,Contact Owner,,Attached,22.48245851,88.33165148,6.3,2
Posted On,1,8000,600,1 out of 2,Super Area,Garia,Kolkata,Furnished,Bachelors/Family,1,Contact Owner,,Attached,22.59880654,88.35314669,7.0,2
Posted On,1,3000,350,Ground out of 3,Super Area,Belghoria,Kolkata,Unfurnished,Bachelors/Family,1,Contact Owner,,Attached,22.49727572,88.42210259,8.1,2
Posted On,1,3800,500,1 out of 3,Carpet Area,Nalta,Kolkata,Unfurnished,Bachelors,1,Contact Owner,,Attached,22.48486937,88.28340913,1.3,2
Posted On,1,6500,400,1 out of 1,Super Area,"Vivek Nagar, Garfa",Kolkata,Unfurnished,Bachelors/Family,1,Contact Owner,,Common,22.62941024,88.32829831,7.8,2
Posted On,3,20000,1750,Ground out of 3,Super Area,Kalindi,Kolkata,Semi-Furnished,Bachelors/Family,3,Contact Owner,,Attached,22.64488635,88.43951517,6.3,2
Posted On,3,30000,1600,3 out of 3,Super Area,Ballygunge,Kolkata,Unfurnished,Bachelors/Family,2,Contact Owner,,En-suite,22.55300959,88.42504161,1.3,2
Posted On,1,8000,300,Ground out of 2,Carpet Area,Salt Lake City Sector 5,Kolkata,Semi-Furnished,Bachelors/Family,1,Contact Agent,,Attached,22.49828298,88.4416909,3.8,2
Posted On,2,14000,1100,1 out of 3,Super Area,"Survey park, Santoshpur, kolkata",Kolkata,Semi-Furnished,Bachelors/Family,2,Contact Owner,,Attached,22.54451711,88.31012103,8.3,2
Posted On,2,7200,830,Ground out of 3,Super Area,Sodepur,Kolkata,Unfurnished,Bachelors/Family,1,Contact Owner,,Attached,22.63380811,88.42494878,1.1,2
Posted On,2,7000,600,Ground out of 2,Carpet Area,2 BHK,Kolkata,Semi-Furnished,Bachelors/Family,2,Contact Owner,,Common,22.5494556,88.44487467,3.9,2
Posted On,1,7000,500,1 out of 2,Super Area,Baranagar,Kolkata,Unfurnished,Bachelors,2,Contact Owner,,En-suite,22.60257776,88.3006896,9.4,2
Posted On,2,7500,900,1 out of 2,Carpet Area,Dum Dum Cantonment,Kolkata,Unfurnished,Bachelors/Family,1,Contact Owner,,Attached,22.50725608,88.37657421,3.1,2
Posted On,2,8500,1250,Ground out of 1,Carpet Area,Barasat,Kolkata,Unfurnished,Family,2,Contact Owner,,Attached,22.55675709,88.273013,2.4,2
Posted On,2,12000,700,Ground out of 2,Carpet Area,Salt Lake City Sector 2,Kolkata,Unfurnished,Bachelors,1,Contact Agent,,Attached,22.48958095,88.39987748,4.6,2
Posted On,1,8500,850,Ground out of 1,Carpet Area,Dakshineswar,Kolkata,Unfurnished,Bachelors,2,Contact Owner,,Attached,22.65616376,88.41288418,8.6,2
Posted On,2,9500,550,Ground out of 1,Carpet Area,"Garia Station, Garia",Kolkata,Unfurnished,Bachelors/Family,1,Contact Owner,,Common,22.61403369,88.36820321,4.3,2
Posted On,2,7500,550,Ground out of 1,Carpet Area,"New Garia Metro, New Garia",Kolkata,Furnished,Bachelors/Family,2,Contact Owner,,Attached,22.60911243,88.30272746,9.3,2
Posted On,2,12000,1200,Ground out of 1,Super Area,Hati Bagan - Bansdroni,Kolkata,Unfurnished,Bachelors/Family,1,Contact Owner,,Common,22.58254691,88.39578768,6.0,2
Posted On,3,20000,1100,Ground out of 1,Carpet Area,Salt Lake City Sector 2,Kolkata,Unfurnished,Bachelors,2,Contact Agent,,Common,22.60029725,88.43654879,4.6,2
Posted On,2,8500,650,Ground out of 1,Super Area,Howrah,Kolkata,Semi-Furnished,Bachelors/Family,1,Contact Owner,,En-suite,22.66159512,88.31017579,9.9,2
Posted On,3,20000,1050,Ground out of 1,Carpet Area,Salt Lake City Sector 2,Kolkata,Unfurnished,Bachelors,2,Contact Agent,,Attached,22.58325404,88.337604,3.7,2
Posted On,2,6000,960,Ground out of 2,Super Area,Dum Dum,Kolkata,Semi-Furnished,Bachelors/Family,2,Contact Owner,,Attached,22.51465481,88.42899988,4.3,2
Posted On,2,5500,650,1 out of 1,Carpet Area,Joka,Kolkata,Unfurnished,Bachelors/Family,2,Contact Owner,,Attached,22.67151712,88.36944737,8.7,2
Posted On,1,7000,550,Ground out of 2,Super Area,Kasba,Kolkata,Semi-Furnished,Bachelors/Family,1,Contact Owner,,Common,22.63634763,88.38095094,8.2,2
Posted On,2,7000,500,Ground out of 1,Super Area,Dum Dum Metro,Kolkata,Semi-Furnished,Bachelors/Family,2,Contact Owner,,Common,22.62892506,88.34864793,5.6,2
Posted On,1,6500,450,3 out of 4,Super Area,"Baishnabghata Patuli Township, Patuli",Kolkata,Unfurnished,Family,1,Contact Owner,,Attached,22.50836251,88.41777455,7.9,2
Posted On,2,10000,850,1 out of 2,Super Area,Agarpara,Kolkata,Unfurnished,Bachelors,2,Contact Owner,,Attached,22.51793832,88.45709125,9.3,2
Posted On,1,5200,300,Ground out of 3,Carpet Area,Dum Dum,Kolkata,Unfurnished,Bachelors/Family,1,Contact Agent,,Attached,22.6663067,88.38762924,1.7,2
Posted On,2,13000,1000,1 out of 2,Carpet Area,"N.S.C Bose Road (Near Ushagate), New Alipore",Kolkata,Semi-Furnished,Bachelors/Family,3,Contact Owner,,Attached,22.60420736,88.31380023,7.2,2
Posted On,2,7000,500,1 out of 3,Carpet Area,Garia,Kolkata,Unfurnished,Bachelors/Family,1,Contact Owner,,Common,22.62099082,88.37665893,6.6,2
Posted On,2,12000,756,Ground out of 3,Carpet Area,Dashadron Newtown Rajarhat,Kolkata,Semi-Furnished,Bachelors/Family,1,Contact Owner,,Attached,22.48985463,88.29866678,9.2,2
Posted On,1,15000,1000,2 out of 3,Super Area,Barrackpore,Kolkata,Unfurnished,Bachelors/Family,1,Contact Owner,,Common,22.49752235,88.26449064,2.3,2
Posted On,1,5000,150,1 out of 2,Carpet Area,Anandapur,Kolkata,Unfurnished,Bachelors/Family,1,Contact Owner,,Attached,22.47328409,88.30552538,8.6,2
Posted On,1,8000,800,Ground out of 2,Carpet Area,New town near ecopark .,Kolkata,Unfurnished,Bachelors,1,Contact Owner,,Attached,22.47313298,88.26898541,8.4,2
Posted On,2,8000,700,2 out of 3,Super Area,"Gandhi Colony, Netaji Nagar",Kolkata,Unfurnished,Bachelors,2,Contact Agent,,Attached,22.65030496,88.30851583,1.8,2
Posted On,1,5000,420,3 out of 3,Super Area,Em Bypass South East,Kolkata,Unfurnished,Bachelors,1,Contact Owner,,Attached,22.6035285,88.40258205,6.0,2
Posted On,2,10000,800,Ground out of 1,Super Area,"Gandhi Colony, Netaji Nagar",Kolkata,Unfurnished,Bachelors,1,Contact Agent,,Attached,22.53531832,88.36747827,9.3,2
Posted On,2,12000,288,2 out of 3,Carpet Area,Kasba,Kolkata,Unfurnished,Bachelors,1,Contact Owner,,Standard,22.56087012,88.38584293,8.6,2
Posted On,2,8000,900,Ground out of 1,Super Area,"Teghoria, Baguiati",Kolkata,Unfurnished,Bachelors/Family,2,Contact Owner,,Attached,22.60864286,88.39871146,4.9,2
Posted On,2,21000,850,1 out of 1,Carpet Area,Salt Lake City Sector 2,Kolkata,Unfurnished,Bachelors,2,Contact Agent,,Standard,22.5288062,88.34993161,2.9,2
Posted On,1,5000,350,1 out of 1,Carpet Area,Thakurpukur,Kolkata,Unfurnished,Bachelors,1,Contact Owner,,Standard,22.53572125,88.29905068,4.7,2
Posted On,2,9000,600,Ground out of 2,Super Area,Baghajatin,Kolkata,Unfurnished,Bachelors/Family,1,Contact Owner,,Common,22.66554045,88.33190142,5.0,2
Posted On,2,8000,1600,Ground out of 2,Carpet Area,Kalyani,Kolkata,Semi-Furnished,Bachelors,1,Contact Owner,,Standard,22.54134647,88.32673155,7.5,2
Posted On,2,7000,986,2 out of 3,Carpet Area,Pranthik Society Library Road Bhadreswar,Kolkata,Unfurnished,Bachelors,1,Contact Owner,,Common,22.57679094,88.33801109,2.9,2
Posted On,3,35000,1330,1 out of 3,Carpet Area,Salt Lake City Sector 2,Kolkata,Unfurnished,Bachelors,2,Contact Agent,,En-suite,22.59833542,88.27710453,6.3,2
Posted On,3,15000,1300,Ground out of 3,Super Area,Lake Town,Kolkata,Semi-Furnished,Bachelors/Family,2,Contact Owner,,Attached,22.5355127,88.36430223,1.9,2
Posted On,2,6200,800,Ground out of 2,Carpet Area,Kestopur,Kolkata,Unfurnished,Bachelors,1,Contact Owner,,En-suite,22.58527617,88.2970678,8.2,2
Posted On,2,9900,800,1 out of 4,Carpet Area,Bijoygarh,Kolkata,Unfurnished,Bachelors/Family,1,Contact Owner,,Attached,22.50040034,88.27047441,2.6,2
Posted On,2,7000,850,Ground out of 3,Super Area,Baranagar,Kolkata,Unfurnished,Bachelors,1,Contact Owner,,Attached,22.478659,88.40466292,8.0,2
Posted On,1,5000,322,1 out of 3,Carpet Area,Dum Dum Metro,Kolkata,Unfurnished,Bachelors/Family,1,Contact Agent,,Attached,22.5390614,88.43642258,2.4,2
Posted On,2,6500,800,Ground out of 2,Carpet Area,Agarpara,Kolkata,Furnished,Bachelors/Family,1,Contact Owner,,Attached,22.66430972,88.3119958,4.0,2
Posted On,4,40000,1500,Ground out of 2,Carpet Area,Salt Lake City Sector 1,Kolkata,Unfurnished,Bachelors,2,Contact Agent,,Attached,22.63161998,88.46056499,3.4,2
Posted On,3,40000,3500,1 out of 2,Super Area,Salt Lake City,Kolkata,Semi-Furnished,Bachelors/Family,2,Contact Owner,,Standard,22.50788254,88.35499884,5.8,2
Posted On,2,12000,957,1 out of 2,Carpet Area,Dasnagar,Kolkata,Furnished,Bachelors,2,Contact Owner,,Common,22.57563522,88.36512687,1.9,2
Posted On,1,6500,850,1 out of 3,Carpet Area,Baksara,Kolkata,Unfurnished,Bachelors,1,Contact Owner,,En-suite,22.57386354,88.40863627,6.6,2
Posted On,2,10000,900,Ground out of 2,Carpet Area,Birati,Kolkata,Unfurnished,Bachelors,2,Contact Owner,,Attached,22.62503788,88.32939061,2.8,2
Posted On,2,15000,600,Ground out of 2,Super Area,Agarpara,Kolkata,Semi-Furnished,Bachelors/Family,1,Contact Owner,,Common,22.56512545,88.40360331,1.7,2
Posted On,1,5000,350,Ground out of 5,Carpet Area,Agarpara,Kolkata,Semi-Furnished,Bachelors/Family,1,Contact Owner,,Attached,22.55784095,88.29372557,1.6,2
Posted On,2,7000,800,Ground out of 2,Super Area,Thakurpukur,Kolkata,Unfurnished,Bachelors/Family,1,Contact Owner,,Attached,22.64371872,88.33989954,6.6,2
Posted On,2,6000,320,1 out of 2,Carpet Area,"Baishnabghata Patuli, Patuli",Kolkata,Unfurnished,Bachelors/Family,1,Contact Owner,,Attached,22.51943482,88.34275318,1.9,2
Posted On,3,15000,800,Ground out of 4,Carpet Area,Jyangra,Kolkata,Unfurnished,Bachelors/Family,1,Contact Owner,,Standard,22.65700311,88.30437244,1.6,2
Posted On,2,10000,700,1 out of 1,Carpet Area,Baghajatin,Kolkata,Semi-Furnished,Bachelors,2,Contact Owner,,Common,22.57734646,88.30899831,6.8,2
Posted On,2,22000,1200,1 out of 2,Super Area,Salt Lake City Sector 1,Kolkata,Semi-Furnished,Bachelors/Family,2,Contact Agent,,Attached,22.54935425,88.46082093,6.3,2
Posted On,2,8500,750,1 out of 2,Carpet Area,Ramchandrapur north,Kolkata,Semi-Furnished,Bachelors/Family,1,Contact Owner,,Attached,22.56672975,88.29301131,9.2,2
Posted On,3,35000,1200,Ground out of 3,Super Area,Salt Lake City Sector 1,Kolkata,Semi-Furnished,Bachelors/Family,3,Contact Agent,,Attached,22.49364443,88.4612494,4.8,2
Posted On,2,7000,450,Ground out of 4,Carpet Area,"Gandhi Colony, Netaji Nagar",Kolkata,Unfurnished,Bachelors/Family,1,Contact Owner,,Common,22.55512356,88.34607863,4.4,2
Posted On,3,8500,1430,Ground out of 2,Super Area,Baguihati,Kolkata,Semi-Furnished,Bachelors/Family,1,Contact Owner,,Attached,22.56950689,88.36222817,5.4,2
Posted On,2,6000,450,1 out of 3,Super Area,Dum Dum Metro,Kolkata,Unfurnished,Bachelors/Family,1,Contact Agent,,Attached,22.52059898,88.45715261,9.1,2
Posted On,4,35000,800,Ground out of 1,Super Area,Behala,Kolkata,Semi-Furnished,Bachelors/Family,3,Contact Owner,,Attached,22.49803277,88.4025705,4.1,2
Posted On,1,6000,400,1 out of 2,Super Area,Thakurpukur,Kolkata,Unfurnished,Bachelors/Family,1,Contact Owner,,Attached,22.48168527,88.30995106,9.0,2
Posted On,2,8000,650,1 out of 2,Super Area,"Garia Station, Garia",Kolkata,Unfurnished,Bachelors/Family,1,Contact Owner,,Attached,22.56473148,88.31625056,8.0,2
Posted On,1,5000,450,1 out of 2,Carpet Area,"Fartabad, Garia",Kolkata,Unfurnished,Bachelors/Family,1,Contact Owner,,En-suite,22.47263019,88.27093237,2.6,2
Posted On,2,6000,600,Ground out of 4,Super Area,Belgharia,Kolkata,Unfurnished,Bachelors/Family,1,Contact Owner,,Attached,22.58650709,88.29068803,2.2,2
Posted On,3,15000,1200,1 out of 3,Carpet Area,Lake Town,Kolkata,Unfurnished,Family,2,Contact Owner,,Attached,22.58776953,88.31123338,4.7,2
Posted On,2,9000,700,3 out of 3,Carpet Area,Baguiati,Kolkata,Unfurnished,Bachelors,1,Contact Owner,,En-suite,22.64635281,88.26788774,3.5,2
Posted On,1,5000,300,Ground out of 1,Carpet Area,Barrackpore,Kolkata,Unfurnished,Bachelors,1,Contact Agent,,Attached,22.61183801,88.46004726,5.5,2
Posted On,3,8000,1200,1 out of 4,Super Area,"Ramkrishna Pally, Kaikhali",Kolkata,Unfurnished,Bachelors/Family,3,Contact Owner,,Attached,22.55146008,88.43499037,3.2,2
Posted On,3,35000,1300,Ground out of 1,Carpet Area,Salt Lake City Sector 2,Kolkata,Unfurnished,Bachelors,2,Contact Agent,,Attached,22.52475921,88.32009567,9.7,2
Posted On,1,5500,400,Ground out of 1,Super Area,"Shyam Villa V, Dum Dum",Kolkata,Unfurnished,Bachelors/Family,1,Contact Agent,,Attached,22.58794137,88.45632413,5.4,2
Posted On,3,35000,1320,Ground out of 2,Carpet Area,Salt Lake City Sector 1,Kolkata,Unfurnished,Bachelors,2,Contact Agent,,Common,22.54649113,88.38468203,4.8,2
Posted On,2,11000,1000,Ground out of 1,Super Area,"Anandapuri, Barrackpore",Kolkata,Furnished,Bachelors/Family,2,Contact Owner,,Attached,22.55129804,88.33383537,8.2,2
Posted On,2,10000,700,1 out of 2,Carpet Area,"Sarat Ghosh Garden, Dhakuria",Kolkata,Unfurnished,Bachelors,1,Contact Owner,,Attached,22.65600316,88.44539725,2.2,2
Posted On,2,6500,800,Ground out of 2,Carpet Area,locality,Kolkata,Unfurnished,Bachelors/Family,2,Contact Owner,,En-suite,22.60776494,88.36657098,1.6,2
Posted On,2,6000,900,Ground out of 3,Super Area,Baguiati,Kolkata,Furnished,Bachelors/Family,1,Contact Owner,,Common,22.62627347,88.43347449,6.2,2
Posted On,3,36125,1700,Ground out of 2,Super Area,Salt Lake City,Kolkata,Unfurnished,Bachelors/Family,2,Contact Owner,,Common,22.54935287,88.37851758,6.4,2
Posted On,2,6800,600,Ground out of 2,Carpet Area,Purba Putiary,Kolkata,Unfurnished,Bachelors,1,Contact Owner,,Attached,22.49225344,88.28726993,7.0,2
Posted On,2,8500,850,1 out of 2,Carpet Area,Barasat,Kolkata,Unfurnished,Family,2,Contact Owner,,Attached,22.63358654,88.37440809,4.5,2
Posted On,2,5000,550,1 out of 3,Carpet Area,Birati,Kolkata,Unfurnished,Bachelors,1,Contact Owner,,Attached,22.50069254,88.394471,6.5,2
Posted On,1,6500,650,Ground out of 2,Carpet Area,"Garia Station, Garia",Kolkata,Furnished,Bachelors/Family,1,Contact Owner,,En-suite,22.53403019,88.42992146,7.0,2
Posted On,1,6500,800,Ground out of 1,Carpet Area,Santragachi,Kolkata,Unfurnished,Bachelors/Family,1,Contact Owner,,Attached,22.51742526,88.383765,9.7,2
Posted On,2,4500,475,Ground out of 2,Super Area,Birati,Kolkata,Unfurnished,Bachelors/Family,1,Contact Owner,,Attached,22.52115646,88.42659714,1.2,2
Posted On,1,6000,200,Ground out of 1,Carpet Area,Salt Lake City Sector 5,Kolkata,Unfurnished,Bachelors/Family,1,Contact Agent,,Attached,22.52371171,88.42334919,4.0,2
Posted On,1,10000,400,Ground out of 2,Carpet Area,Salt Lake City Sector 5,Kolkata,Unfurnished,Bachelors/Family,1,Contact Agent,,Attached,22.47592508,88.36476994,2.1,2
Posted On,1,12000,500,Ground out of 2,Super Area,"Madurdaha, Hussainpur",Kolkata,Furnished,Bachelors/Family,1,Contact Agent,,Attached,22.63595846,88.37914945,7.3,2
Posted On,2,12000,550,2 out of 3,Carpet Area,Salt Lake City Sector 5,Kolkata,Unfurnished,Bachelors/Family,1,Contact Agent,,Attached,22.66749973,88.28384574,3.6,2
Posted On,2,12000,800,1 out of 2,Super Area,Dum Dum,Kolkata,Unfurnished,Bachelors/Family,1,Contact Owner,,En-suite,22.62424168,88.35411308,9.6,2
Posted On,2,9000,1000,2 out of 3,Super Area,Airport Area Behala,Kolkata,Furnished,Bachelors/Family,2,Contact Owner,,Standard,22.56098856,88.31500937,2.0,2
Posted On,1,5000,400,Ground out of 5,Carpet Area,Sonarpur,Kolkata,Semi-Furnished,Bachelors,1,Contact Owner,,Common,22.59665847,88.37583976,5.0,2
Posted On,1,6000,300,1 out of 2,Carpet Area,"Picnic Garden, E M Bypass",Kolkata,Unfurnished,Bachelors/Family,1,Contact Agent,,En-suite,22.56452733,88.42732116,8.0,2
Posted On,2,5500,450,1 out of 1,Carpet Area,Bisharpara,Kolkata,Unfurnished,Bachelors/Family,1,Contact Owner,,En-suite,22.65053262,88.34506945,4.4,2
Posted On,2,5500,450,1 out of 2,Carpet Area,Bisharpara,Kolkata,Unfurnished,Bachelors/Family,1,Contact Owner,,En-suite,22.49636729,88.40573072,6.0,2
Posted On,2,8500,1100,Ground out of 1,Carpet Area,Nayabad,Kolkata,Unfurnished,Bachelors/Family,2,Contact Owner,,Attached,22.52474353,88.43070147,8.1,2
Posted On,1,5000,450,2 out of 2,Super Area,"Ananda Pally, Jadavpur",Kolkata,Unfurnished,Bachelors/Family,1,Contact Owner,,Attached,22.47895187,88.43369765,2.5,2
Posted On,2,23000,1100,Ground out of 2,Carpet Area,Salt Lake City Sector 2,Kolkata,Unfurnished,Bachelors,2,Contact Owner,,Attached,22.56432795,88.26845392,5.4,2
Posted On,2,5500,650,2 out of 2,Carpet Area,Behala,Kolkata,Unfurnished,Bachelors/Family,1,Contact Owner,,Attached,22.49617748,88.29259693,7.0,2
Posted On,2,8500,780,Ground out of 2,Carpet Area,Airport Area,Kolkata,Unfurnished,Bachelors,1,Contact Owner,,Attached,22.60512878,88.33421184,1.2,2
Posted On,3,22000,1100,Ground out of 2,Super Area,Salt Lake City Sector 2,Kolkata,Semi-Furnished,Bachelors/Family,2,Contact Owner,,Attached,22.63875065,88.30872784,5.0,2
Posted On,1,5500,800,2 out of 3,Super Area,Barrackpore,Kolkata,Unfurnished,Bachelors/Family,1,Contact Owner,,Common,22.58674075,88.29764204,6.8,2
Posted On,1,7000,500,Ground out of 2,Super Area,Ranikuthi Telephone Exchange,Kolkata,Semi-Furnished,Bachelors/Family,2,Contact Agent,,Attached,22.52521567,88.35228762,2.0,2
Posted On,1,5000,400,3 out of 5,Carpet Area,Hooghly-Chinsurah,Kolkata,Unfurnished,Bachelors,1,Contact Owner,,Attached,22.48343724,88.26434429,6.0,2
Posted On,1,5000,450,1 out of 1,Carpet Area,"Bansdroni Mauza, Krishnanagar",Kolkata,Unfurnished,Bachelors/Family,1,Contact Owner,,Common,22.51580113,88.44797356,1.4,2
Posted On,2,6500,550,Ground out of 1,Super Area,Kaikhali,Kolkata,Unfurnished,Bachelors/Family,1,Contact Agent,,Attached,22.48064475,88.3143611,9.8,2
Posted On,2,8000,600,1 out of 2,Carpet Area,700051,Kolkata,Unfurnished,Bachelors/Family,1,Contact Owner,,Standard,22.63813067,88.43188417,9.3,2
Posted On,1,5500,200,1 out of 3,Super Area,Jodhpur Park,Kolkata,Unfurnished,Bachelors/Family,1,Contact Owner,,Attached,22.56531118,88.31096197,1.1,2
Posted On,2,6000,500,1 out of 2,Carpet Area,Purba Sinthi Area,Kolkata,Semi-Furnished,Bachelors/Family,1,Contact Owner,,Attached,22.6455919,88.26793415,9.8,2
Posted On,1,5500,450,Ground out of 3,Carpet Area,Kadam Tala,Kolkata,Unfurnished,Bachelors,1,Contact Owner,,Attached,22.47931425,88.29691555,5.5,2
Posted On,2,10000,1050,Ground out of 1,Super Area,Baidyabati,Kolkata,Unfurnished,Bachelors/Family,2,Contact Owner,,Common,22.56987527,88.45526304,3.0,2
Posted On,3,10000,1000,2 out of 5,Carpet Area,Bansdroni,Kolkata,Unfurnished,Bachelors,2,Contact Owner,,Standard,22.4930279,88.30009442,7.8,2
Posted On,2,10000,1200,Ground out of 3,Super Area,Sodepur,Kolkata,Semi-Furnished,Bachelors/Family,2,Contact Owner,,Attached,22.56782956,88.2836378,8.3,2
Posted On,3,12000,1100,1 out of 1,Super Area,Jagacha,Kolkata,Semi-Furnished,Family,2,Contact Owner,,Attached,22.56798301,88.3016528,8.8,2
Posted On,1,5200,220,Ground out of 2,Super Area,New Town,Kolkata,Unfurnished,Bachelors/Family,1,Contact Owner,,Attached,22.637532,88.42191054,4.4,2
Posted On,1,4000,350,1 out of 1,Super Area,Behala,Kolkata,Unfurnished,Bachelors/Family,1,Contact Owner,,Attached,22.63182596,88.4091618,5.3,2
Posted On,3,30000,1100,Ground out of 3,Carpet Area,FC Block,Kolkata,Unfurnished,Bachelors,1,Contact Owner,,Attached,22.55834688,88.28673579,6.4,2
Posted On,2,5146,800,Ground out of 2,Super Area,Sodepur,Kolkata,Unfurnished,Bachelors/Family,1,Contact Owner,,Common,22.50535249,88.32903865,1.2,2
Posted On,2,12000,950,Ground out of 2,Super Area,"Satgachi, South Dum Dum",Kolkata,Unfurnished,Bachelors/Family,1,Contact Owner,,Common,22.56952252,88.39643091,1.8,2
Posted On,3,7000,1200,Ground out of 3,Super Area,Hooghly-Chinsurah,Kolkata,Unfurnished,Bachelors/Family,1,Contact Owner,,En-suite,22.56246489,88.3634777,2.2,2
Posted On,2,8500,700,Ground out of 2,Super Area,Behala,Kolkata,Semi-Furnished,Bachelors/Family,1,Contact Owner,,Attached,22.62123975,88.27011097,6.2,2
Posted On,1,7000,500,1 out of 3,Super Area,"AH Block, Salt Lake",Kolkata,Unfurnished,Bachelors/Family,1,Contact Owner,,Attached,22.61654484,88.40661265,6.8,2
Posted On,2,9500,570,Ground out of 3,Super Area,"Dhakuria -South East, Dhakuria",Kolkata,Unfurnished,Bachelors/Family,1,Contact Owner,,Common,22.5134042,88.3783829,4.8,2
Posted On,2,8000,650,2 out of 3,Super Area,Baghajatin,Kolkata,Unfurnished,Bachelors/Family,1,Contact Owner,,Attached,22.63081929,88.46180291,3.9,2
Posted On,3,15000,1200,1 out of 2,Super Area,Tollygunge,Kolkata,Unfurnished,Bachelors/Family,3,Contact Owner,,Common,22.64118549,88.43493176,6.3,2
Posted On,5,22500,960,Ground out of 1,Super Area,Kasba,Kolkata,Unfurnished,Bachelors/Family,2,Contact Owner,,Attached,22.64788205,88.28700273,2.3,2
Posted On,2,12500,1250,1 out of 2,Super Area,Rajarhat,Kolkata,Semi-Furnished,Bachelors/Family,2,Contact Owner,,Common,22.60980134,88.29708786,5.9,2
Posted On,3,34000,120,2 out of 5,Super Area,CA 150 sector 1 saltlake,Kolkata,Furnished,Bachelors/Family,2,Contact Owner,,Common,22.64728104,88.26398362,2.6,2
Posted On,3,14000,950,1 out of 2,Carpet Area,Kaikhali,Kolkata,Semi-Furnished,Bachelors/Family,2,Contact Owner,,Attached,22.6424197,88.29632282,6.2,2
Posted On,1,9500,600,1 out of 2,Carpet Area,Salt Lake City Sector 5,Kolkata,Unfurnished,Bachelors/Family,1,Contact Agent,,Standard,22.51074908,88.34758963,3.9,2
Posted On,2,7000,750,2 out of 2,Super Area,Baughati,Kolkata,Unfurnished,Bachelors/Family,1,Contact Owner,,Standard,22.55095513,88.26480153,8.2,2
Posted On,3,20000,1200,3 out of 3,Super Area,Bansdroni,Kolkata,Unfurnished,Bachelors/Family,2,Contact Owner,,Attached,22.48036495,88.33826468,3.5,2
Posted On,1,6500,400,Ground out of 2,Carpet Area,Salt Lake City Sector 5,Kolkata,Semi-Furnished,Bachelors/Family,1,Contact Agent,,Attached,22.57354792,88.32869254,1.8,2
Posted On,1,7500,600,Ground out of 2,Carpet Area,Garfa,Kolkata,Furnished,Bachelors/Family,1,Contact Owner,,Attached,22.50124683,88.3019093,2.6,2
Posted On,2,6500,700,Ground out of 2,Super Area,Dum Dum,Kolkata,Unfurnished,Bachelors/Family,1,Contact Owner,,Common,22.54759912,88.271368,8.4,2
Posted On,2,9500,850,Ground out of 3,Super Area,Baguiati,Kolkata,Semi-Furnished,Bachelors/Family,1,Contact Owner,,Attached,22.65296676,88.30069038,1.9,2
Posted On,1,1800,500,Ground out of 1,Super Area,Shyam Bazar,Kolkata,Semi-Furnished,Bachelors/Family,1,Contact Owner,,Attached,22.61423142,88.31378482,2.9,2
Posted On,2,7500,650,Ground out of 2,Carpet Area,Baghajatin,Kolkata,Unfurnished,Bachelors/Family,1,Contact Owner,,Standard,22.53727969,88.33963925,3.6,2
Posted On,2,10000,800,Ground out of 3,Super Area,Bansdroni,Kolkata,Semi-Furnished,Bachelors/Family,2,Contact Owner,,Common,22.58354417,88.31723755,4.5,2
Posted On,3,15000,830,3 out of 4,Super Area,Dum Dum,Kolkata,Unfurnished,Bachelors/Family,2,Contact Owner,,Standard,22.50811826,88.45819387,3.7,2
Posted On,2,7000,600,Ground out of 2,Super Area,Keshtopur,Kolkata,Unfurnished,Bachelors,1,Contact Agent,,Common,22.58439062,88.30813539,3.7,2
Posted On,2,6000,800,1 out of 2,Super Area,"Chandannagar, Hooghly-Chinsurah",Kolkata,Unfurnished,Bachelors/Family,1,Contact Owner,,Attached,22.581153,88.44611503,6.6,2
Posted On,2,14000,1200,Ground out of 1,Super Area,"Sakuntala Park, Behala",Kolkata,Semi-Furnished,Family,2,Contact Owner,,Attached,22.59838763,88.27297929,5.6,2
Posted On,2,22000,1000,Ground out of 2,Super Area,Jheel Road,Kolkata,Furnished,Bachelors/Family,2,Contact Owner,,Attached,22.58289259,88.31943209,6.7,2
Posted On,2,18000,750,Ground out of 2,Carpet Area,Salt Lake City Sector 1,Kolkata,Unfurnished,Bachelors/Family,2,Contact Agent,,Attached,22.62862824,88.27043105,5.9,2
Posted On,2,10000,800,Ground out of 3,Carpet Area,Garia,Kolkata,Unfurnished,Bachelors,2,Contact Owner,,Standard,22.47423311,88.43105461,6.8,2
Posted On,2,6000,1200,Ground out of 3,Super Area,Madhyam Gram,Kolkata,Unfurnished,Bachelors/Family,2,Contact Owner,,Standard,22.61680125,88.28735448,6.0,2
Posted On,2,10000,750,4 out of 4,Carpet Area,"Kumarpara, Narendrapur",Kolkata,Unfurnished,Bachelors/Family,1,Contact Owner,,Attached,22.52958014,88.29421488,5.5,2
Posted On,3,10000,1500,11 out of 19,Super Area,Santoshpur,Kolkata,Semi-Furnished,Bachelors/Family,2,Contact Owner,,Standard,22.51107133,88.39512283,2.2,2
Posted On,1,5000,300,1 out of 3,Super Area,"Noapara, Addarsha Pally",Kolkata,Unfurnished,Bachelors/Family,1,Contact Owner,,Common,22.63181665,88.41993071,2.2,2
Posted On,3,10000,800,Ground out of 2,Carpet Area,"Arobindo Pally, Paschim Putiary",Kolkata,Unfurnished,Bachelors,1,Contact Owner,,Attached,22.62982593,88.36469748,5.1,2
Posted On,2,7000,450,Ground out of 2,Super Area,Dum Dum,Kolkata,Unfurnished,Bachelors/Family,2,Contact Owner,,Attached,22.50671702,88.35039212,2.1,2
Posted On,4,10000,1200,5 out of 10,Super Area,Naihati,Kolkata,Furnished,Bachelors/Family,2,Contact Owner,,Attached,22.6564736,88.41625152,7.4,2
Posted On,2,6000,500,11 out of 14,Super Area,Howrah,Kolkata,Semi-Furnished,Bachelors/Family,2,Contact Owner,,Attached,22.53307718,88.41445741,6.3,2
Posted On,2,18000,900,Ground out of 1,Carpet Area,Garia,Kolkata,Semi-Furnished,Bachelors/Family,2,Contact Owner,,Common,22.47856931,88.27429893,2.2,2
Posted On,2,8000,460,Ground out of 2,Carpet Area,Majarhati,Kolkata,Unfurnished,Bachelors,1,Contact Owner,,Common,22.51337194,88.38013992,7.6,2
Posted On,2,8000,530,2 out of 3,Super Area,Baghajatin,Kolkata,Semi-Furnished,Family,1,Contact Owner,,Attached,22.53294722,88.28915796,2.7,2
Posted On,2,13000,650,Ground out of 4,Carpet Area,Lake Gardens,Kolkata,Semi-Furnished,Bachelors/Family,2,Contact Owner,,Attached,22.53589775,88.38752346,5.4,2
Posted On,2,20000,700,Ground out of 1,Carpet Area,Salt Lake City Sector 2,Kolkata,Semi-Furnished,Bachelors,2,Contact Owner,,Attached,22.51158151,88.44020468,3.1,2
Posted On,2,6000,400,2 out of 3,Super Area,"Baishnabghata Patuli Township, Patuli",Kolkata,Unfurnished,Bachelors/Family,1,Contact Owner,,Attached,22.66621438,88.27170364,7.5,2
Posted On,2,12000,1000,Ground out of 2,Super Area,"Picnic Garden, Tiljala",Kolkata,Unfurnished,Bachelors/Family,2,Contact Owner,,Common,22.6460794,88.30685006,1.3,2
Posted On,1,10000,400,Ground out of 2,Carpet Area,"New Garia, Garia",Kolkata,Semi-Furnished,Bachelors,1,Contact Owner,,Attached,22.55492912,88.27859852,7.4,2
Posted On,2,14000,700,Ground out of 3,Carpet Area,Santoshpur,Kolkata,Unfurnished,Bachelors,2,Contact Owner,,Common,22.65296377,88.40187417,3.7,2
Posted On,2,10000,850,1 out of 4,Carpet Area,Baranagar,Kolkata,Semi-Furnished,Bachelors,2,Contact Owner,,Attached,22.60296562,88.43771827,9.2,2
Posted On,2,10500,558,3 out of 3,Carpet Area,Tollygunge,Kolkata,Unfurnished,Bachelors/Family,2,Contact Agent,,Attached,22.47922909,88.34629184,4.6,2
Posted On,2,6000,800,3 out of 4,Super Area,Thakurpukur,Kolkata,Unfurnished,Bachelors/Family,1,Contact Owner,,Common,22.62467203,88.42414847,1.8,2
Posted On,2,12000,900,1 out of 2,Carpet Area,"Bansdroni Mauza, Krishnanagar",Kolkata,Unfurnished,Bachelors/Family,2,Contact Owner,,Common,22.60976079,88.38970678,1.9,2
Posted On,3,14000,1600,1 out of 3,Super Area,Ramrajatala,Kolkata,Furnished,Bachelors/Family,2,Contact Owner,,Attached,22.59228398,88.45095175,5.4,2
Posted On,1,3700,150,1 out of 5,Carpet Area,Lake Gardens,Kolkata,Unfurnished,Bachelors,1,Contact Owner,,Attached,22.56236351,88.34219608,3.8,2
Posted On,3,40000,1600,Ground out of 3,Carpet Area,Salt Lake City Sector 2,Kolkata,Unfurnished,Bachelors,2,Contact Agent,,Standard,22.50015238,88.42375847,1.0,2
Posted On,3,25000,1000,2 out of 4,Super Area,Rash Behari Avenue Connector,Kolkata,Unfurnished,Bachelors/Family,1,Contact Owner,,Attached,22.59062174,88.29766639,4.3,2
Posted On,1,2200,700,1 out of 3,Super Area,Baranagar,Kolkata,Unfurnished,Bachelors/Family,1,Contact Owner,,Attached,22.52378503,88.36176089,2.6,2
Posted On,1,3300,175,Ground out of 2,Super Area,New Town,Kolkata,Unfurnished,Bachelors/Family,1,Contact Owner,,Attached,22.61923393,88.34256806,3.3,2
Posted On,1,5000,450,Ground out of 1,Super Area,"Siriti, Tollygunge",Kolkata,Semi-Furnished,Bachelors/Family,1,Contact Owner,,Attached,22.49253077,88.46121371,5.3,2
Posted On,3,60000,1700,1 out of 3,Carpet Area,Salt Lake City,Kolkata,Semi-Furnished,Bachelors,3,Contact Agent,,Attached,22.5140541,88.35166395,3.1,2
Posted On,2,6000,425,2 out of 3,Carpet Area,Nimta,Kolkata,Unfurnished,Bachelors/Family,1,Contact Owner,,Common,22.52675558,88.36623674,7.4,2
Posted On,3,7000,900,1 out of 2,Super Area,"Michael Nagar, New Barrakpur",Kolkata,Semi-Furnished,Bachelors/Family,3,Contact Owner,,Common,22.51622406,88.40518444,3.2,2
Posted On,1,5000,400,4 out of 4,Carpet Area,Keshtopur,Kolkata,Unfurnished,Bachelors/Family,1,Contact Agent,,Standard,22.60734019,88.30106089,2.8,2
Posted On,2,11000,600,Ground out of 2,Super Area,Beliaghata,Kolkata,Unfurnished,Bachelors/Family,1,Contact Agent,,Attached,22.64145869,88.41689073,9.6,2
Posted On,2,10000,721,3 out of 4,Super Area,Belgharia Nimta,Kolkata,Furnished,Bachelors/Family,2,Contact Owner,,Attached,22.65000862,88.33646184,4.8,2
Posted On,3,22000,1150,1 out of 2,Carpet Area,Salt Lake City Sector 2,Kolkata,Unfurnished,Bachelors/Family,2,Contact Agent,,Attached,22.5688286,88.34056307,5.0,2
Posted On,3,65000,2210,Ground out of 2,Carpet Area,"Vedic Village, Rajarhat",Kolkata,Unfurnished,Bachelors/Family,3,Contact Owner,,Attached,22.66257626,88.31309254,3.3,2
Posted On,2,7500,675,Ground out of 2,Super Area,Dum Dum,Kolkata,Unfurnished,Bachelors/Family,1,Contact Owner,,Common,22.58157985,88.43060488,6.5,2
Posted On,2,45000,1320,Lower Basement out of 2,Super Area,Ballygunge,Kolkata,Furnished,Bachelors/Family,2,Contact Owner,,Standard,22.65915797,88.33442146,9.1,2
Posted On,1,5000,250,Ground out of 2,Carpet Area,Salt Lake City Sector 5,Kolkata,Unfurnished,Bachelors/Family,1,Contact Agent,,Attached,22.55904591,88.27868867,3.5,2
Posted On,2,12000,720,Ground out of 1,Super Area,Shyam Bazar,Kolkata,Unfurnished,Bachelors,2,Contact Owner,,En-suite,22.47385703,88.32250805,4.9,2
Posted On,5,25000,1880,2 out of 2,Carpet Area,Dashdrone,Kolkata,Unfurnished,Bachelors,2,Contact Owner,,Common,22.65715666,88.38281375,8.7,2
Posted On,3,18000,850,1 out of 1,Carpet Area,"Sangati Colony, Netaji Nagar",Kolkata,Semi-Furnished,Bachelors/Family,3,Contact Owner,,Attached,22.66890822,88.2785277,3.0,2
Posted On,2,25000,1050,1 out of 1,Carpet Area,"Sahapur, New Alipore",Kolkata,Unfurnished,Bachelors/Family,2,Contact Owner,,Common,22.61099574,88.39218169,8.7,2
Posted On,1,25000,320,2 out of 7,Super Area,"Shaheen Apartment, Andheri West",Mumbai,Semi-Furnished,Bachelors/Family,1,Contact Owner,,Common,19.14054706,72.80731027,7.3,0
Posted On,2,70000,750,4 out of 10,Carpet Area,Santacruz West,Mumbai,Furnished,Bachelors/Family,2,Contact Agent,,Common,18.99283735,72.87516959,2.6,3
Posted On,1,45000,450,7 out of 10,Carpet Area,"Rose Queen, Old Khar",Mumbai,Furnished,Bachelors/Family,1,Contact Agent,,Standard,19.11517941,72.91849906,6.0,0
Posted On,3,75000,1100,2 out of 13,Carpet Area,"Sabari Palm View, Chembur",Mumbai,Unfurnished,Family,3,Contact Agent,,Standard,19.00970963,72.82450392,10.0,0
Posted On,1,14000,640,6 out of 7,Super Area,Mira Road,Mumbai,Furnished,Bachelors/Family,1,Contact Owner,,Common,19.10889986,72.86130119,2.1,3
Posted On,1,60000,650,4 out of 7,Super Area,"Siddhivinayak, Bandra West",Mumbai,Unfurnished,Bachelors,1,Contact Agent,,Attached,18.99791097,72.89552426,5.6,0
Posted On,2,160000,800,14 out of 14,Carpet Area,parivar safalya chs,Mumbai,Unfurnished,Bachelors/Family,2,Contact Owner,,Attached,19.15332329,72.90960008,6.4,0
Posted On,4,300000,1600,43 out of 78,Carpet Area,"Trump Tower, Worli",Mumbai,Semi-Furnished,Bachelors/Family,5,Contact Agent,,Standard,19.03747889,72.90394919,7.7,0
Posted On,1,22000,460,2 out of 8,Super Area,Sion,Mumbai,Unfurnished,Bachelors/Family,1,Contact Owner,,Attached,19.07135027,72.85774946,3.3,3
Posted On,4,130000,1650,13 out of 18,Carpet Area,"Ajmera Bhakti Park, Bhakti Park",Mumbai,Semi-Furnished,Bachelors/Family,4,Contact Agent,,Common,19.08344481,72.88437903,6.1,0
Posted On,1,33000,480,2 out of 4,Carpet Area,Sion Hospital Colony,Mumbai,Semi-Furnished,Bachelors,2,Contact Agent,,Common,19.12914754,72.77810642,5.9,0
Posted On,1,32000,500,1 out of 4,Carpet Area,Sion,Mumbai,Furnished,Bachelors,2,Contact Agent,,Attached,18.97894076,72.96605571,4.4,3
Posted On,1,30000,490,2 out of 4,Carpet Area,"Sion East, Sion",Mumbai,Semi-Furnished,Bachelors,2,Contact Agent,,Attached,19.12373317,72.9736758,9.0,0
Posted On,1,49000,620,2 out of 3,Super Area,"Sai Palace Apartment, Vile Parle West",Mumbai,Furnished,Bachelors/Family,1,Contact Owner,,Common,19.05309596,72.95648904,8.0,0
Posted On,2,28000,518,5 out of 12,Carpet Area,Bhandup West,Mumbai,Semi-Furnished,Bachelors/Family,2,Contact Owner,,Attached,19.14027581,72.78434539,5.3,3
Posted On,2,33500,700,4 out of 7,Carpet Area,"Yogi Hills, Mulund West",Mumbai,Semi-Furnished,Bachelors/Family,2,Contact Agent,,Attached,19.17082053,72.92093923,7.9,0
Posted On,2,85000,777,18 out of 24,Carpet Area,"Hiranandani Castle Rock, Powai",Mumbai,Semi-Furnished,Bachelors/Family,2,Contact Agent,,Attached,19.13645884,72.78028638,3.0,3
Posted On,2,35000,650,6 out of 7,Carpet Area,Charkop,Mumbai,Unfurnished,Family,2,Contact Agent,,Standard,18.99122017,72.85668817,3.5,3
Posted On,3,270000,1800,3 out of 7,Carpet Area,Bandra West,Mumbai,Semi-Furnished,Bachelors/Family,4,Contact Agent,,Attached,19.16743535,72.79135347,9.5,0
Posted On,5,400000,2308,17 out of 31,Carpet Area,"Runwal Elegante, Andheri West",Mumbai,Furnished,Family,5,Contact Agent,,En-suite,19.05277249,72.79536309,9.0,0
Posted On,1,21000,425,11 out of 21,Carpet Area,"Godrej Tranquil, Kandivali East",Mumbai,Unfurnished,Bachelors/Family,2,Contact Agent,,Attached,19.05853491,72.85315627,2.6,3
Posted On,2,150000,890,7 out of 19,Carpet Area,Cuffe Parade,Mumbai,Unfurnished,Bachelors,2,Contact Owner,,En-suite,19.06256904,72.77832197,3.3,3
Posted On,1,22000,270,14 out of 23,Super Area,Mahim West,Mumbai,Unfurnished,Bachelors/Family,1,Contact Owner,,Common,19.16654653,72.91255324,5.0,3
Posted On,2,100000,850,4 out of 7,Carpet Area,Prabhadevi,Mumbai,Semi-Furnished,Bachelors,2,Contact Agent,,En-suite,18.98361252,72.9551553,7.3,0
Posted On,2,60000,888,9 out of 20,Carpet Area,"Shapoorji Pallonji Vicinia, Chandivali",Mumbai,Semi-Furnished,Bachelors/Family,2,Contact Agent,,Common,19.06025305,72.88235298,8.7,0
Posted On,2,8000,650,Upper Basement out of 9,Carpet Area,"Nakoda Heights, Nalasopara",Mumbai,Semi-Furnished,Family,2,Contact Agent,,Standard,18.99038314,72.83994505,8.7,0
Posted On,1,20000,275,19 out of 24,Carpet Area,Worli,Mumbai,Unfurnished,Bachelors,1,Contact Agent,,Common,19.02019596,72.93064766,3.8,3
Posted On,2,20000,700,3 out of 21,Carpet Area,"Man Opus, Kashimira",Mumbai,Semi-Furnished,Family,2,Contact Agent,,Common,18.99077508,72.89259758,6.6,0
Posted On,1,25000,375,1 out of 22,Super Area,Lal Baug,Mumbai,Unfurnished,Bachelors/Family,1,Contact Owner,,Attached,19.16050168,72.90807757,8.3,0
Posted On,1,14000,424,3 out of 7,Super Area,Malad East,Mumbai,Semi-Furnished,Bachelors/Family,1,Contact Owner,,Attached,19.06627645,72.78520035,9.3,0
Posted On,1,19411,400,8 out of 8,Super Area,Goregaon West,Mumbai,Furnished,Bachelors/Family,2,Contact Owner,,Common,19.13116731,72.78959605,2.5,3
Posted On,1,23000,450,6 out of 12,Carpet Area,"Dheeraj Hill View Tower, Thakur Village, Kandivali East",Mumbai,Furnished,Bachelors/Family,1,Contact Agent,,Attached,18.99910158,72.87608958,6.7,0
Posted On,4,190000,2079,4 out of 58,Carpet Area,"Bombay Dyeing Two ICC, Dadar East",Mumbai,Semi-Furnished,Bachelors/Family,5,Contact Agent,,Attached,19.08786767,72.81749656,4.6,3
Posted On,2,32000,586,Ground out of 4,Super Area,"Everard Nagar Co Operative Housing Society, Sion East",Mumbai,Semi-Furnished,Bachelors/Family,1,Contact Owner,,Standard,19.03834676,72.95325469,8.8,0
Posted On,2,68000,610,1 out of 5,Carpet Area,shivsagar,Mumbai,Furnished,Bachelors/Family,2,Contact Owner,,En-suite,19.16711518,72.88402311,3.7,3
Posted On,1,30000,488,Upper Basement out of 16,Carpet Area,"Kyraa Ariso Apartment, Chembur",Mumbai,Semi-Furnished,Bachelors/Family,2,Contact Owner,,Common,19.01667408,72.84916155,4.3,3
Posted On,3,110000,1200,60 out of 66,Carpet Area,"Lodha Azzuro , Parel",Mumbai,Semi-Furnished,Bachelors/Family,3,Contact Agent,,Attached,19.07457282,72.97078629,1.5,3
Posted On,2,44000,722,34 out of 48,Carpet Area,"Sheth Montana, Mulund West",Mumbai,Semi-Furnished,Bachelors/Family,2,Contact Agent,,Standard,19.08586905,72.92282648,6.7,0
Posted On,1,20000,450,5 out of 8,Carpet Area,"Gokul Regency Apartment, Thakur Complex",Mumbai,Unfurnished,Bachelors/Family,1,Contact Agent,,Common,19.06883806,72.95497339,4.7,3
Posted On,1,25000,500,2 out of 8,Super Area,Ghatkopar West,Mumbai,Semi-Furnished,Bachelors/Family,2,Contact Owner,,Attached,19.09137922,72.820509,5.9,0
Posted On,2,40000,680,5 out of 14,Carpet Area,"NG Royal Park, Kanjurmarg East",Mumbai,Furnished,Bachelors,2,Contact Agent,,Common,18.98260129,72.872938,6.7,0
Posted On,2,43000,1150,14 out of 40,Carpet Area,"Montana Giona, Moti Nagar",Mumbai,Unfurnished,Bachelors/Family,2,Contact Agent,,Attached,19.0536446,72.87080117,5.2,3
Posted On,2,44000,830,2 out of 2,Carpet Area,"Sapphire Heights, Lokhandwala Twp",Mumbai,Furnished,Bachelors,2,Contact Agent,,En-suite,19.00701096,72.89342029,7.8,0
Posted On,1,75000,550,5 out of 7,Carpet Area,Bandra West,Mumbai,Furnished,Bachelors/Family,1,Contact Agent,,Attached,19.09512934,72.89344795,4.0,3
Posted On,1,32000,470,6 out of 7,Carpet Area,Central Area,Mumbai,Semi-Furnished,Family,2,Contact Agent,,Attached,19.08798697,72.91769574,4.2,3
Posted On,1,16000,410,9 out of 22,Carpet Area,Mira Bhayandar,Mumbai,Semi-Furnished,Family,2,Contact Agent,,Standard,19.09393012,72.78759358,5.9,0
Posted On,2,65000,710,11 out of 14,Carpet Area,"Ajmera Bhakti Park, Bhakti Park",Mumbai,Semi-Furnished,Bachelors/Family,2,Contact Agent,,Attached,19.11337146,72.89451236,3.0,3
Posted On,2,45000,750,12 out of 18,Carpet Area,"Ajmera Bhakti Park, Bhakti Park",Mumbai,Semi-Furnished,Bachelors/Family,2,Contact Agent,,Common,19.00457144,72.82221621,1.5,3
Posted On,2,57000,800,6 out of 7,Carpet Area,Chembur,Mumbai,Unfurnished,Bachelors/Family,2,Contact Agent,,Attached,19.00642124,72.9134607,5.7,0
Posted On,1,27000,435,3 out of 7,Carpet Area,Film City Road,Mumbai,Unfurnished,Bachelors/Family,2,Contact Agent,,Attached,18.98473181,72.9521378,5.1,3
Posted On,1,57000,500,26 out of 44,Carpet Area,"Lodha New Cuffe Parade, Wadala",Mumbai,Semi-Furnished,Bachelors/Family,1,Contact Agent,,Common,19.04698214,72.83661649,4.4,3
Posted On,2,55000,800,1 out of 8,Carpet Area,"Evershine Grandeur, Mindspace",Mumbai,Furnished,Bachelors/Family,2,Contact Agent,,Attached,19.06807408,72.91333611,6.0,0
Posted On,1,40000,540,2 out of 4,Carpet Area,Vile Parle East,Mumbai,Semi-Furnished,Family,2,Contact Agent,,Attached,19.11372367,72.93506118,3.2,3
Posted On,2,95000,1050,25 out of 42,Carpet Area,"Lodha New Cuffe Parade, Wadala East",Mumbai,Unfurnished,Bachelors/Family,2,Contact Agent,,Attached,19.09591279,72.82862048,3.9,3
Posted On,2,85000,700,25 out of 41,Carpet Area,"Lodha New Cuffe Parade, Wadala",Mumbai,Semi-Furnished,Bachelors/Family,2,Contact Agent,,Common,19.14298024,72.86891586,3.6,3
Posted On,4,300000,1600,53 out of 78,Carpet Area,"Trump Tower, Worli",Mumbai,Semi-Furnished,Bachelors/Family,4,Contact Agent,,Attached,18.98492307,72.84849693,6.3,0
Posted On,2,80000,600,2 out of 5,Carpet Area,Breach Candy,Mumbai,Furnished,Bachelors/Family,1,Contact Agent,,Attached,19.08456091,72.81084084,7.5,0
Posted On,1,13000,300,Ground out of 7,Super Area,Malad West,Mumbai,Unfurnished,Bachelors/Family,2,Contact Owner,,Attached,19.14927498,72.96063296,4.5,3
Posted On,1,28000,550,3 out of 4,Carpet Area,"Ambika Siddhi Apartment, Ghatkopar",Mumbai,Unfurnished,Bachelors,2,Contact Owner,,Attached,19.03560206,72.81485708,2.7,3
Posted On,3,89000,932,14 out of 20,Carpet Area,Powai,Mumbai,Semi-Furnished,Bachelors/Family,3,Contact Agent,,En-suite,19.12363804,72.91366606,1.9,3
Posted On,1,28000,450,13 out of 20,Carpet Area,Dina Bama Estate,Mumbai,Unfurnished,Bachelors/Family,2,Contact Agent,,Standard,19.00440788,72.78453974,4.6,3
Posted On,2,13000,600,2 out of 4,Carpet Area,Mira Road,Mumbai,Unfurnished,Bachelors/Family,2,Contact Owner,,Common,19.06486027,72.90765697,1.2,3
Posted On,1,24000,424,16 out of 23,Carpet Area,"Sethia Kalpavruksh Heights, Irani Wada",Mumbai,Unfurnished,Bachelors/Family,2,Contact Agent,,Attached,19.1286214,72.86028782,9.0,0
Posted On,2,38000,560,Ground out of 3,Carpet Area,Andheri East,Mumbai,Furnished,Bachelors,2,Contact Owner,,Common,19.11547153,72.94879144,6.5,0
Posted On,1,32000,450,10 out of 18,Carpet Area,Goregaon West,Mumbai,Unfurnished,Bachelors,2,Contact Agent,,Attached,19.0702232,72.86713017,9.4,0
Posted On,4,350000,3000,39 out of 60,Carpet Area,"Lodha World Crest, Lower Parel",Mumbai,Semi-Furnished,Bachelors/Family,5,Contact Agent,,En-suite,19.08956246,72.84962335,6.3,0
Posted On,1,40000,600,3 out of 7,Carpet Area,Lokhandwala Complex,Mumbai,Furnished,Family,2,Contact Agent,,Attached,19.04553997,72.93117165,3.3,3
Posted On,3,150000,1400,16 out of 21,Carpet Area,darshan ricco Tower,Mumbai,Furnished,Bachelors,3,Contact Agent,,Attached,19.03876298,72.84553511,1.1,3
Posted On,2,45000,630,10 out of 32,Carpet Area,Kanjurmarg West,Mumbai,Unfurnished,Bachelors,2,Contact Agent,,Standard,19.07431448,72.94784215,2.5,3
Posted On,3,170000,1400,4 out of 8,Carpet Area,Khar West,Mumbai,Unfurnished,Bachelors/Family,3,Contact Agent,,Attached,19.14494074,72.80469364,4.4,3
Posted On,1,30000,320,12 out of 24,Super Area,Worli,Mumbai,Furnished,Family,1,Contact Owner,,Standard,19.03102141,72.86277474,1.6,3
Posted On,2,210000,1000,4 out of 8,Carpet Area,Bandra West,Mumbai,Unfurnished,Bachelors,2,Contact Agent,,Attached,19.15633541,72.78925839,6.5,0
Posted On,3,75000,1150,32 out of 41,Carpet Area,"Kanakia Levels, Malad East",Mumbai,Unfurnished,Bachelors/Family,3,Contact Agent,,Attached,19.11763817,72.83037102,5.1,3
Posted On,2,47000,751,3 out of 30,Carpet Area,"Kalpataru Towers, Akurli Nagar",Mumbai,Semi-Furnished,Family,2,Contact Agent,,Attached,18.97853551,72.92488121,2.6,3
Posted On,2,14000,570,4 out of 7,Carpet Area,"Kailash Tower, Nalasopara",Mumbai,Furnished,Family,2,Contact Agent,,Attached,19.01185009,72.83889567,6.4,0
Posted On,2,55000,696,13 out of 21,Carpet Area,Chandivali,Mumbai,Semi-Furnished,Bachelors/Family,2,Contact Agent,,Attached,19.0117956,72.91657136,7.3,0
Posted On,4,120000,1600,9 out of 29,Carpet Area,"Anant Bhoomi, Mahavir Nagar",Mumbai,Unfurnished,Family,4,Contact Agent,,Attached,18.99716358,72.87356049,3.4,3
Posted On,3,300000,2500,47 out of 89,Carpet Area,"India Bulls Sky Forest, Lower Parel",Mumbai,Semi-Furnished,Bachelors,3,Contact Agent,,Common,19.0597637,72.86708508,4.7,3
Posted On,3,70000,1150,7 out of 41,Carpet Area,"Kanakia Levels, Malad East",Mumbai,Unfurnished,Bachelors/Family,3,Contact Agent,,Attached,19.144641,72.88538587,9.4,0
Posted On,3,150000,1500,7 out of 10,Carpet Area,"Almeida Park, Turner Road",Mumbai,Semi-Furnished,Bachelors/Family,4,Contact Agent,,Attached,19.02610451,72.89134673,2.8,3
Posted On,3,62000,950,6 out of 7,Carpet Area,Bhakti Park,Mumbai,Furnished,Bachelors/Family,3,Contact Agent,,Attached,19.17322586,72.8316386,8.5,0
Posted On,2,42000,750,11 out of 21,Carpet Area,"RNA ROYALE PARK, Kandivali West",Mumbai,Unfurnished,Bachelors,2,Contact Agent,,Common,19.09730643,72.94237248,4.2,3
Posted On,2,130000,715,5 out of 10,Carpet Area,Bandra West,Mumbai,Furnished,Bachelors/Family,2,Contact Agent,,En-suite,19.14386862,72.84720345,2.6,3
Posted On,3,170000,1337,28 out of 30,Carpet Area,"Oberoi Splendor Grande, Agarkar Chowk",Mumbai,Furnished,Bachelors/Family,3,Contact Agent,,Attached,19.05299848,72.89782253,8.3,0
Posted On,3,20000,737,13 out of 15,Carpet Area,"Ekta Parksville, Virar West",Mumbai,Semi-Furnished,Bachelors,3,Contact Agent,,Standard,19.15835255,72.88524904,9.1,0
Posted On,2,41000,750,6 out of 21,Carpet Area,"RNA ROYALE PARK, Kandivali West",Mumbai,Unfurnished,Bachelors,2,Contact Agent,,Standard,19.02353723,72.91497732,8.1,0
Posted On,2,65000,760,4 out of 7,Carpet Area,Prabhadevi,Mumbai,Semi-Furnished,Bachelors/Family,2,Contact Agent,,Common,19.0653917,72.82155108,6.3,0
Posted On,2,50000,750,8 out of 16,Carpet Area,"Green Park Apartment, Millat Nagar",Mumbai,Semi-Furnished,Bachelors/Family,2,Contact Agent,,Attached,19.10329697,72.87435383,3.5,3
Posted On,2,85000,650,2 out of 6,Carpet Area,Breach Candy,Mumbai,Semi-Furnished,Bachelors,2,Contact Agent,,Attached,18.98788976,72.8477778,6.2,0
Posted On,2,50000,1000,4 out of 7,Super Area,Ghatkopar East,Mumbai,Semi-Furnished,Bachelors/Family,2,Contact Owner,,Attached,19.02988282,72.96523365,1.7,3
Posted On,1,30000,570,Ground out of 3,Carpet Area,Kurla West,Mumbai,Unfurnished,Bachelors/Family,1,Contact Owner,,Attached,19.02950459,72.87228196,5.4,3
Posted On,2,120000,900,5 out of 19,Carpet Area,"Beach Towers, Prabhadevi",Mumbai,Semi-Furnished,Family,2,Contact Agent,,Attached,19.10989027,72.90356454,3.5,3
Posted On,2,60000,760,3 out of 11,Carpet Area,"Kolte Patil Jai Vijay, New Airport Colony",Mumbai,Unfurnished,Family,2,Contact Agent,,Common,19.13658944,72.94071309,4.2,3
Posted On,3,110000,1500,17 out of 42,Carpet Area,"Lodha New Cuffe Parade, Bhakti Park",Mumbai,Unfurnished,Bachelors/Family,4,Contact Agent,,Standard,19.107141,72.8259119,9.7,0
Posted On,3,84500,1150,10 out of 12,Carpet Area,Chembur East,Mumbai,Unfurnished,Family,3,Contact Agent,,Standard,18.98702313,72.91099875,4.0,3
Posted On,3,80000,1100,8 out of 28,Carpet Area,"HDIL Metropolis, 4 Bunglows",Mumbai,Semi-Furnished,Family,3,Contact Agent,,Attached,18.99458562,72.84989625,5.2,3
Posted On,3,50000,1000,9 out of 15,Carpet Area,"Heena Gaurav Jewels, Gokuldham",Mumbai,Furnished,Bachelors/Family,3,Contact Agent,,Common,19.08125386,72.81869526,4.4,3
Posted On,2,40000,720,14 out of 22,Carpet Area,shabri shan,Mumbai,Unfurnished,Bachelors,2,Contact Agent,,Attached,19.02598217,72.93090027,9.2,0
Posted On,1,34000,365,18 out of 40,Carpet Area,Malad East,Mumbai,Furnished,Family,1,Contact Agent,,Common,19.03083622,72.9000074,6.2,0
Posted On,4,220000,2000,9 out of 17,Carpet Area,Juhu Tara,Mumbai,Furnished,Bachelors/Family,4,Contact Agent,,Attached,19.0115457,72.83238363,3.6,3
Posted On,1,25000,400,2 out of 13,Carpet Area,"Mindspace, Mindspace",Mumbai,Unfurnished,Bachelors/Family,1,Contact Agent,,Attached,19.06223875,72.84224359,6.3,0
Posted On,3,150000,1330,12 out of 45,Carpet Area,"Oberoi Esquire, Goregaon East",Mumbai,Semi-Furnished,Bachelors/Family,4,Contact Agent,,Attached,19.00992925,72.82440203,9.5,0
Posted On,3,85000,850,25 out of 35,Carpet Area,"Oberoi Woods, Goregaon East",Mumbai,Semi-Furnished,Family,3,Contact Agent,,Attached,19.04291937,72.7982955,7.0,0
Posted On,4,180000,2000,4 out of 14,Carpet Area,"Vertical Bliss, Bandra West",Mumbai,Furnished,Bachelors/Family,5,Contact Agent,,Attached,19.13957572,72.80012405,2.1,3
Posted On,2,40000,700,2 out of 6,Carpet Area,Sher E Punjab Society,Mumbai,Semi-Furnished,Bachelors/Family,2,Contact Agent,,Common,18.99727542,72.96882563,3.6,3
Posted On,2,50000,900,7 out of 15,Carpet Area,Oshiwara,Mumbai,Semi-Furnished,Bachelors,2,Contact Agent,,Attached,19.05895373,72.79195383,6.6,0
Posted On,2,38000,650,10 out of 16,Carpet Area,"Nirmal Lifestyle, LBS Marg",Mumbai,Furnished,Family,2,Contact Agent,,Common,19.15258423,72.79860824,8.5,0
Posted On,4,310000,2600,Upper Basement out of 20,Carpet Area,Lokhandwala Complex,Mumbai,Unfurnished,Family,4,Contact Agent,,Attached,19.0016511,72.83433948,1.9,3
Posted On,2,50000,680,5 out of 14,Carpet Area,Chembur,Mumbai,Unfurnished,Bachelors/Family,2,Contact Agent,,Attached,18.9948269,72.9324406,3.7,3
Posted On,3,65000,950,Upper Basement out of 9,Carpet Area,Tilak Nagar - Harbour Line,Mumbai,Semi-Furnished,Bachelors/Family,3,Contact Agent,,Attached,19.00358124,72.94899018,1.7,3
Posted On,4,210000,1783,5 out of 20,Carpet Area,GREEN PARK,Mumbai,Semi-Furnished,Bachelors/Family,3,Contact Owner,,Attached,18.98071546,72.97340081,1.5,3
Posted On,3,150000,1330,Upper Basement out of 40,Carpet Area,Lodha Ajuro tower lalbag,Mumbai,Unfurnished,Bachelors/Family,3,Contact Agent,,Attached,19.01334505,72.78688958,8.3,0
Posted On,1,32000,565,1 out of 8,Super Area,"Lake Bloom, Powai",Mumbai,Unfurnished,Bachelors/Family,2,Contact Owner,,Common,19.03627436,72.92199349,9.5,0
Posted On,1,26000,450,4 out of 8,Carpet Area,Kalina,Mumbai,Unfurnished,Bachelors/Family,1,Contact Agent,,Attached,19.10444502,72.84037141,8.3,0
Posted On,2,60000,710,5 out of 18,Carpet Area,"Bhakti Park, Bhakti Park",Mumbai,Semi-Furnished,Bachelors/Family,2,Contact Agent,,Attached,19.01764668,72.96520426,7.5,0
Posted On,3,190000,1514,34 out of 58,Carpet Area,"Bombay Dyeing Two ICC, Dadar East",Mumbai,Semi-Furnished,Bachelors/Family,4,Contact Agent,,En-suite,19.11103661,72.8639876,5.2,3
Posted On,3,100000,1080,5 out of 8,Carpet Area,Santacruz West,Mumbai,Unfurnished,Bachelors/Family,3,Contact Agent,,Attached,19.10263338,72.96334025,7.4,0
Posted On,2,35000,700,5 out of 8,Carpet Area,"MUKTA MAHEK, Thakur Complex",Mumbai,Unfurnished,Family,2,Contact Agent,,Common,18.98140892,72.88695514,1.9,3
Posted On,3,68000,890,11 out of 19,Carpet Area,"Kanakia Rainforest, Marol",Mumbai,Unfurnished,Bachelors/Family,2,Contact Agent,,Attached,19.0296798,72.94931779,9.8,0
Posted On,3,150000,1250,5 out of 8,Carpet Area,Bandra West,Mumbai,Semi-Furnished,Bachelors/Family,3,Contact Agent,,Attached,19.04014031,72.96014151,8.6,0
